name,name_ascii,type,county_fips,state_id,state_name,lat,lng,population
Zayante,Zayante,City,6087,CA,California,37.0892,-122.0409,581
Yucca Valley,Yucca Valley,City,6071,CA,California,34.1234,-116.4216,21663
Yucaipa,Yucaipa,City,6071,CA,California,34.0336,-117.0429,54312
Yuba City,Yuba City,City,6101,CA,California,39.1357,-121.6383,129536
Yreka,Yreka,City,6093,CA,California,41.7291,-122.6312,7807
Yountville,Yountville,City,6055,CA,California,38.3963,-122.3671,3351
Youngstown,Youngstown,City,6043,CA,California,37.6481,-119.7182,35
Yosemite Valley,Yosemite Valley,City,6043,CA,California,37.7407,-119.5779,1210
Yosemite Lakes,Yosemite Lakes,City,6039,CA,California,37.1885,-119.7723,5388
Yorba Linda,Yorba Linda,City,6059,CA,California,33.889,-117.7714,68319
Yolo,Yolo,City,6113,CA,California,38.7405,-121.8093,243
Yettem,Yettem,City,6107,CA,California,36.4856,-119.256,274
Yermo,Yermo,City,6071,CA,California,34.9073,-116.8235,1014
Yankee Hill,Yankee Hill,City,6007,CA,California,39.7007,-121.5147,327
Wrightwood,Wrightwood,City,6071,CA,California,34.3495,-117.63,4568
Woody,Woody,City,6029,CA,California,35.7081,-118.8145,79
Woodville Farm Labor Camp,Woodville Farm Labor Camp,City,6107,CA,California,36.0832,-119.1479,469
Woodville,Woodville,City,6107,CA,California,36.0927,-119.2012,1906
Woodside,Woodside,City,6081,CA,California,37.4221,-122.2586,5316
Woodlands,Woodlands,City,6079,CA,California,35.0289,-120.5524,1939
Woodland,Woodland,City,6113,CA,California,38.6712,-121.75,60977
Woodlake,Woodlake,City,6107,CA,California,36.4122,-119.1,7458
Woodcrest,Woodcrest,City,6065,CA,California,33.8789,-117.3687,17492
Woodbridge,Woodbridge,City,6077,CA,California,38.1692,-121.3113,4090
Woodacre,Woodacre,City,6041,CA,California,38.0052,-122.6384,1279
Wofford Heights,Wofford Heights,City,6029,CA,California,35.7127,-118.4731,1964
Winton,Winton,City,6047,CA,California,37.3854,-120.6173,11623
Winters,Winters,City,6113,CA,California,38.532,-121.9781,7138
Winterhaven,Winterhaven,City,6025,CA,California,32.7372,-114.6378,92
Winter Gardens,Winter Gardens,City,6073,CA,California,32.8376,-116.9268,21978
Windsor,Windsor,City,6097,CA,California,38.5422,-122.8089,26548
Winchester,Winchester,City,6065,CA,California,33.7146,-117.0775,3300
Wilton,Wilton,City,6067,CA,California,38.413,-121.2127,6281
Wilsonia,Wilsonia,City,6107,CA,California,36.7347,-118.9558,0
Willows,Willows,City,6021,CA,California,39.5149,-122.1995,6241
Willowbrook,Willowbrook,City,6037,CA,California,33.9209,-118.2356,24006
Willow Creek,Willow Creek,City,6023,CA,California,40.9385,-123.6412,1298
Willits,Willits,City,6045,CA,California,39.4047,-123.3494,5008
Williams Canyon,Williams Canyon,City,6059,CA,California,33.7289,-117.6392,14
Williams,Williams,City,6011,CA,California,39.1498,-122.1389,5520
Wilkerson,Wilkerson,City,6027,CA,California,37.2794,-118.3877,598
Wildomar,Wildomar,City,6065,CA,California,33.6173,-117.2582,36511
Whittier,Whittier,City,6037,CA,California,33.9678,-118.0188,87184
Whitmore,Whitmore,City,6089,CA,California,40.6149,-121.9355,356
Whitley Gardens,Whitley Gardens,City,6079,CA,California,35.6574,-120.507,58
Whitewater,Whitewater,City,6065,CA,California,33.9356,-116.6873,1082
Whitehawk,Whitehawk,City,6063,CA,California,39.7206,-120.5536,61
Wheatland,Wheatland,City,6115,CA,California,39.0287,-121.39,3715
Westwood,Westwood,City,6035,CA,California,40.3049,-121.0036,1393
Westside,Westside,City,6019,CA,California,36.4042,-120.1341,223
Westmorland,Westmorland,City,6025,CA,California,33.0389,-115.6223,2289
Westmont,Westmont,City,6037,CA,California,33.9417,-118.3018,35913
Westminster,Westminster,City,6059,CA,California,33.7523,-117.9938,91267
Westley,Westley,City,6099,CA,California,37.5469,-121.2009,576
Westlake Village,Westlake Village,City,6037,CA,California,34.1369,-118.822,8081
Westhaven-Moonstone,Westhaven-Moonstone,City,6023,CA,California,41.0447,-124.1023,1390
West Whittier-Los Nietos,West Whittier-Los Nietos,City,6037,CA,California,33.9759,-118.0689,26275
West Sacramento,West Sacramento,City,6113,CA,California,38.5557,-121.5505,53589
West Rancho Dominguez,West Rancho Dominguez,City,6037,CA,California,33.9057,-118.2683,22007
West Puente Valley,West Puente Valley,City,6037,CA,California,34.0513,-117.9681,23003
West Point,West Point,City,6009,CA,California,38.406,-120.5365,769
West Park,West Park,City,6019,CA,California,36.7055,-119.8516,1110
West Modesto,West Modesto,City,6099,CA,California,37.6178,-121.0346,5882
West Menlo Park,West Menlo Park,City,6081,CA,California,37.4339,-122.2034,3492
West Hollywood,West Hollywood,City,6037,CA,California,34.0883,-118.3719,35678
West Goshen,West Goshen,City,6107,CA,California,36.3492,-119.4574,539
West Covina,West Covina,City,6037,CA,California,34.0555,-117.9113,109396
West Carson,West Carson,City,6037,CA,California,33.8229,-118.2931,22024
West Bishop,West Bishop,City,6027,CA,California,37.3571,-118.4542,2481
West Athens,West Athens,City,6037,CA,California,33.9235,-118.3033,9621
Weott,Weott,City,6023,CA,California,40.3226,-123.9209,78
Weldon,Weldon,City,6029,CA,California,35.6431,-118.3102,2261
Weitchpec,Weitchpec,City,6023,CA,California,41.1969,-123.6939,69
Weedpatch,Weedpatch,City,6029,CA,California,35.2369,-118.9123,2833
Weed,Weed,City,6093,CA,California,41.4127,-122.3816,2870
Weaverville,Weaverville,City,6105,CA,California,40.7407,-122.929,3962
Wawona,Wawona,City,6043,CA,California,37.5447,-119.6387,101
Wautec,Wautec,City,6023,CA,California,41.3543,-123.8623,11
Waukena,Waukena,City,6107,CA,California,36.1391,-119.511,74
Watsonville,Watsonville,City,6087,CA,California,36.9206,-121.7708,76285
Waterloo,Waterloo,City,6077,CA,California,38.0365,-121.1846,913
Waterford,Waterford,City,6099,CA,California,37.6429,-120.7553,9100
Washington,Washington,City,6057,CA,California,39.3591,-120.7905,112
Wasco,Wasco,City,6029,CA,California,35.5938,-119.3671,27505
Warner Valley,Warner Valley,City,6063,CA,California,40.3955,-121.3174,0
Warm Springs,Warm Springs,City,6065,CA,California,33.7067,-117.3343,1622
Walnut Park,Walnut Park,City,6037,CA,California,33.9682,-118.222,16453
Walnut Grove,Walnut Grove,City,6067,CA,California,38.2478,-121.528,1143
Walnut Creek,Walnut Creek,City,6013,CA,California,37.9024,-122.0399,69876
Walnut,Walnut,City,6037,CA,California,34.0334,-117.8593,28641
Wallace,Wallace,City,6009,CA,California,38.2039,-120.9609,769
Walker,Walker,City,6051,CA,California,38.5185,-119.473,401
Volta,Volta,City,6047,CA,California,37.0875,-120.9235,183
Volcano,Volcano,City,6005,CA,California,38.4506,-120.6218,70
Vista Santa Rosa,Vista Santa Rosa,City,6065,CA,California,33.6226,-116.2126,1723
Vista,Vista,City,6073,CA,California,33.1896,-117.2386,98651
Visalia,Visalia,City,6107,CA,California,36.3276,-119.3269,249804
Virginia Lakes,Virginia Lakes,City,6051,CA,California,38.0486,-119.2555,0
Vineyard,Vineyard,City,6067,CA,California,38.474,-121.324,41505
Vine Hill,Vine Hill,City,6013,CA,California,38.007,-122.0873,3382
Vincent,Vincent,City,6037,CA,California,34.0983,-117.9238,16399
Vina,Vina,City,6103,CA,California,39.9343,-122.0517,231
Villa Park,Villa Park,City,6059,CA,California,33.818,-117.8104,5864
View Park-Windsor Hills,View Park-Windsor Hills,City,6037,CA,California,33.9955,-118.3483,11313
Victorville,Victorville,City,6071,CA,California,34.5277,-117.3536,389060
Victor,Victor,City,6077,CA,California,38.1385,-121.1987,641
Vernon,Vernon,City,6037,CA,California,34.0019,-118.2105,328
Verdi,Verdi,City,6091,CA,California,39.5238,-120.0165,165
Vandenberg Village,Vandenberg Village,City,6083,CA,California,34.7111,-120.4622,7085
Vandenberg AFB,Vandenberg AFB,City,6083,CA,California,34.7477,-120.519,3638
Valley Wells,Valley Wells,City,6027,CA,California,35.8761,-117.3366,0
Valley Springs,Valley Springs,City,6009,CA,California,38.1694,-120.826,3891
Valley Ranch,Valley Ranch,City,6063,CA,California,39.7403,-120.565,36
Valley Home,Valley Home,City,6099,CA,California,37.8272,-120.9143,202
Valley Ford,Valley Ford,City,6097,CA,California,38.3246,-122.9147,0
Valley Center,Valley Center,City,6073,CA,California,33.233,-117.0158,11435
Valley Acres,Valley Acres,City,6029,CA,California,35.2087,-119.4106,605
Vallejo,Vallejo,City,6095,CA,California,38.1125,-122.2342,181882
Vallecito,Vallecito,City,6009,CA,California,38.0836,-120.4652,143
Valle Vista,Valle Vista,City,6065,CA,California,33.7436,-116.8871,19550
Valinda,Valinda,City,6037,CA,California,34.04,-117.93,21811
Val Verde,Val Verde,City,6037,CA,California,34.4504,-118.6717,3177
Vacaville,Vacaville,City,6095,CA,California,38.3587,-121.9673,102256
Upper Lake,Upper Lake,City,6033,CA,California,39.1655,-122.9052,1377
Upland,Upland,City,6071,CA,California,34.1178,-117.6604,78624
University of California-Santa Barbara,University of California-Santa Barbara,City,6083,CA,California,34.4151,-119.8568,11912
University of California-Merced,University of California-Merced,City,6047,CA,California,37.3666,-120.4192,0
University of California-Davis,University of California-Davis,City,6113,CA,California,38.5378,-121.7579,8532
Union City,Union City,City,6001,CA,California,37.6032,-122.0181,70828
Ukiah,Ukiah,City,6045,CA,California,39.1464,-123.2105,16728
Twin Lakes,Twin Lakes,City,6087,CA,California,36.9646,-121.9896,5369
Twin Lakes,Twin Lakes,City,6051,CA,California,38.1695,-119.3422,92
Twentynine Palms,Twentynine Palms,City,6071,CA,California,34.1478,-116.0659,27176
Twain Harte,Twain Harte,City,6109,CA,California,38.0384,-120.234,2471
Twain,Twain,City,6063,CA,California,40.0355,-121.0404,311
Tuttletown,Tuttletown,City,6109,CA,California,38.0003,-120.4503,536
Tuttle,Tuttle,City,6047,CA,California,37.2965,-120.3789,64
Tustin,Tustin,City,6059,CA,California,33.7311,-117.8107,79895
Turlock,Turlock,City,6099,CA,California,37.5053,-120.8588,103359
Tupman,Tupman,City,6029,CA,California,35.2987,-119.3577,144
Tuolumne City,Tuolumne City,City,6109,CA,California,37.9615,-120.2428,1446
Tulelake,Tulelake,City,6093,CA,California,41.9533,-121.4751,885
Tulare,Tulare,City,6107,CA,California,36.1995,-119.34,68395
Truckee,Truckee,City,6057,CA,California,39.3455,-120.1848,16850
Trowbridge,Trowbridge,City,6101,CA,California,38.9264,-121.5149,221
Trona,Trona,City,6027,CA,California,35.815,-117.3449,87
Trinity Village,Trinity Village,City,6105,CA,California,40.8789,-123.5132,472
Trinity Center,Trinity Center,City,6105,CA,California,40.9841,-122.7083,232
Trinidad,Trinidad,City,6023,CA,California,41.0589,-124.1434,323
Tres Pinos,Tres Pinos,City,6069,CA,California,36.7904,-121.3105,934
Traver,Traver,City,6107,CA,California,36.454,-119.4838,603
Tranquillity,Tranquillity,City,6019,CA,California,36.648,-120.2526,645
Tracy,Tracy,City,6077,CA,California,37.7269,-121.4523,98022
Trabuco Canyon,Trabuco Canyon,City,6059,CA,California,33.6782,-117.5939,1269
Torrance,Torrance,City,6037,CA,California,33.8346,-118.3416,147156
Toro Canyon,Toro Canyon,City,6083,CA,California,34.4354,-119.5562,1714
Topaz,Topaz,City,6051,CA,California,38.6356,-119.5047,341
Topanga,Topanga,City,6037,CA,California,34.0965,-118.6053,8255
Tooleville,Tooleville,City,6107,CA,California,36.2878,-119.1154,36
Tonyville,Tonyville,City,6107,CA,California,36.2474,-119.0903,93
Tomales,Tomales,City,6041,CA,California,38.247,-122.9054,193
Tobin,Tobin,City,6063,CA,California,39.9358,-121.2965,0
Tipton,Tipton,City,6107,CA,California,36.0572,-119.3135,3193
Timber Cove,Timber Cove,City,6097,CA,California,38.541,-123.2589,230
Tiburon,Tiburon,City,6041,CA,California,37.8854,-122.4637,9146
Three Rocks,Three Rocks,City,6019,CA,California,36.5051,-120.3936,113
Three Rivers,Three Rivers,City,6107,CA,California,36.4334,-118.8885,2601
Thousand Palms,Thousand Palms,City,6065,CA,California,33.815,-116.3545,8052
Thousand Oaks,Thousand Oaks,City,6111,CA,California,34.1914,-118.8756,211045
Thornton,Thornton,City,6077,CA,California,38.2309,-121.4249,889
Thermalito,Thermalito,City,6007,CA,California,39.4909,-121.615,6665
Thermal,Thermal,City,6065,CA,California,33.6262,-116.1309,1198
Teviston,Teviston,City,6107,CA,California,35.9289,-119.2783,1063
Terra Bella,Terra Bella,City,6107,CA,California,35.96,-119.0387,1563
Terminous,Terminous,City,6077,CA,California,38.1153,-121.4896,436
Tennant,Tennant,City,6093,CA,California,41.5822,-121.913,42
Templeton,Templeton,City,6079,CA,California,35.556,-120.7181,8458
Temple City,Temple City,City,6037,CA,California,34.1022,-118.0579,36526
Temescal Valley,Temescal Valley,City,6065,CA,California,33.7581,-117.4677,27546
Temelec,Temelec,City,6097,CA,California,38.2577,-122.4982,1920
Temecula,Temecula,City,6065,CA,California,33.4928,-117.1315,109376
Tehama,Tehama,City,6103,CA,California,40.0217,-122.1268,483
Tehachapi,Tehachapi,City,6029,CA,California,35.1276,-118.4744,13346
Tecopa,Tecopa,City,6027,CA,California,35.835,-116.2074,209
Taylorsville,Taylorsville,City,6063,CA,California,40.0586,-120.8387,29
Tarpey Village,Tarpey Village,City,6019,CA,California,36.7941,-119.7012,4056
Tarina,Tarina,City,6029,CA,California,35.3807,-118.8171,0
Tara Hills,Tara Hills,City,6013,CA,California,37.9939,-122.3188,5080
Tancred,Tancred,City,6113,CA,California,38.7619,-122.1547,28
Tamalpais-Homestead Valley,Tamalpais-Homestead Valley,City,6041,CA,California,37.8793,-122.5382,12535
Talmage,Talmage,City,6045,CA,California,39.1314,-123.1648,989
Tahoma,Tahoma,City,6061,CA,California,39.064,-120.1434,1035
Tahoe Vista,Tahoe Vista,City,6061,CA,California,39.2478,-120.0533,1120
Taft Mosswood,Taft Mosswood,City,6077,CA,California,37.9139,-121.2831,1351
Taft Heights,Taft Heights,City,6029,CA,California,35.1337,-119.4711,1459
Taft,Taft,City,6029,CA,California,35.1268,-119.4243,8730
Swall Meadows,Swall Meadows,City,6051,CA,California,37.5061,-118.6426,348
Sutter Creek,Sutter Creek,City,6005,CA,California,38.3827,-120.8106,2614
Sutter,Sutter,City,6101,CA,California,39.1556,-121.7493,2778
Susanville,Susanville,City,6035,CA,California,40.4206,-120.6132,16305
Sunol,Sunol,City,6001,CA,California,37.59,-121.8847,799
Sunnyvale,Sunnyvale,City,6085,CA,California,37.3836,-122.0255,155550
Sunnyside-Tahoe City,Sunnyside-Tahoe City,City,6061,CA,California,39.1507,-120.1596,1507
Sunnyside,Sunnyside,City,6019,CA,California,36.7294,-119.6945,4468
Sunny Slopes,Sunny Slopes,City,6051,CA,California,37.5693,-118.6758,81
Sun Village,Sun Village,City,6037,CA,California,34.5596,-117.9558,12961
Summerland,Summerland,City,6083,CA,California,34.4244,-119.5938,582
Sultana,Sultana,City,6107,CA,California,36.5455,-119.3379,1024
Suisun City,Suisun City,City,6095,CA,California,38.2473,-122.0091,29436
Sugarloaf Village,Sugarloaf Village,City,6107,CA,California,35.8269,-118.6354,9
Sugarloaf Saw Mill,Sugarloaf Saw Mill,City,6107,CA,California,35.8345,-118.6167,0
Strawberry,Strawberry,City,6041,CA,California,37.8925,-122.5078,5371
Strathmore,Strathmore,City,6107,CA,California,36.1461,-119.0644,3360
Stratford,Stratford,City,6031,CA,California,36.1885,-119.8222,1115
Stonyford,Stonyford,City,6011,CA,California,39.3695,-122.5438,72
Stones Landing,Stones Landing,City,6035,CA,California,40.6974,-120.731,116
Stockton,Stockton,City,6077,CA,California,37.9765,-121.3109,406822
Stirling City,Stirling City,City,6007,CA,California,39.9064,-121.5361,315
Stinson Beach,Stinson Beach,City,6041,CA,California,37.9026,-122.6501,526
Stevinson,Stevinson,City,6047,CA,California,37.3247,-120.8497,188
Stevenson Ranch,Stevenson Ranch,City,6037,CA,California,34.3894,-118.5883,19518
Stebbins,Stebbins,City,6029,CA,California,35.4056,-119.3142,834
Stanton,Stanton,City,6059,CA,California,33.8003,-117.9935,38167
Stanford,Stanford,City,6085,CA,California,37.4252,-122.1674,16333
Stallion Springs,Stallion Springs,City,6029,CA,California,35.0922,-118.6586,3018
St. Helena,St. Helena,City,6055,CA,California,38.5063,-122.4682,5530
Squirrel Mountain Valley,Squirrel Mountain Valley,City,6029,CA,California,35.6175,-118.4047,1113
Squaw Valley,Squaw Valley,City,6019,CA,California,36.6997,-119.1995,3688
Springville,Springville,City,6107,CA,California,36.1225,-118.8228,480
Spring Valley Lake,Spring Valley Lake,City,6071,CA,California,34.4987,-117.2683,8266
Spring Valley,Spring Valley,City,6073,CA,California,32.7317,-116.9766,32860
Spring Garden,Spring Garden,City,6063,CA,California,39.9012,-120.7936,0
Spreckels,Spreckels,City,6053,CA,California,36.6247,-121.6465,203
Spaulding,Spaulding,City,6035,CA,California,40.6557,-120.7863,154
South Whittier,South Whittier,City,6037,CA,California,33.9336,-118.0312,58800
South Taft,South Taft,City,6029,CA,California,35.1293,-119.4575,2377
South San Jose Hills,South San Jose Hills,City,6037,CA,California,34.0123,-117.9043,19750
South San Gabriel,South San Gabriel,City,6037,CA,California,34.0488,-118.0961,7653
South San Francisco,South San Francisco,City,6081,CA,California,37.6538,-122.4196,66331
South Pasadena,South Pasadena,City,6037,CA,California,34.1103,-118.1573,26837
South Oroville,South Oroville,City,6007,CA,California,39.4767,-121.5439,2668
South Monrovia Island,South Monrovia Island,City,6037,CA,California,34.1234,-117.9958,6290
South Lake Tahoe,South Lake Tahoe,City,6017,CA,California,38.9393,-119.9828,21355
South Gate,South Gate,City,6037,CA,California,33.9447,-118.1926,93308
South El Monte,South El Monte,City,6037,CA,California,34.0493,-118.0484,19860
South Dos Palos,South Dos Palos,City,6047,CA,California,36.9707,-120.6467,1003
Soulsbyville,Soulsbyville,City,6109,CA,California,37.9917,-120.2617,2259
Soquel,Soquel,City,6087,CA,California,36.9978,-121.9483,10806
Sonora,Sonora,City,6109,CA,California,37.9819,-120.3828,4940
Sonoma State University,Sonoma State University,City,6097,CA,California,38.3406,-122.6729,1455
Sonoma,Sonoma,City,6097,CA,California,38.2902,-122.4598,10819
Somis,Somis,City,6111,CA,California,34.2652,-118.9984,993
Solvang,Solvang,City,6083,CA,California,34.5935,-120.1401,6032
Soledad,Soledad,City,6053,CA,California,36.4432,-121.3426,25102
Solana Beach,Solana Beach,City,6073,CA,California,32.9943,-117.2574,13025
Soda Springs,Soda Springs,City,6057,CA,California,39.3248,-120.3786,54
Soda Bay,Soda Bay,City,6033,CA,California,39.0024,-122.7794,954
Snelling,Snelling,City,6047,CA,California,37.5216,-120.4385,144
Smith River,Smith River,City,6015,CA,California,41.9233,-124.149,812
Smith Corner,Smith Corner,City,6029,CA,California,35.4788,-119.2771,275
Smartsville,Smartsville,City,6115,CA,California,39.2053,-121.2928,386
Sleepy Hollow,Sleepy Hollow,City,6041,CA,California,38.0121,-122.5878,2511
Sky Valley,Sky Valley,City,6065,CA,California,33.8913,-116.3551,2236
Sisquoc,Sisquoc,City,6083,CA,California,34.8621,-120.2943,199
Simi Valley,Simi Valley,City,6111,CA,California,34.2663,-118.749,127158
Silverado Resort,Silverado Resort,City,6055,CA,California,38.3536,-122.2556,926
Silverado,Silverado,City,6059,CA,California,33.7482,-117.6285,861
Silver Lakes,Silver Lakes,City,6071,CA,California,34.7515,-117.343,5432
Silver City,Silver City,City,6107,CA,California,36.4663,-118.6495,0
Signal Hill,Signal Hill,City,6037,CA,California,33.803,-118.1681,11780
Sierraville,Sierraville,City,6091,CA,California,39.575,-120.3637,301
Sierra Village,Sierra Village,City,6109,CA,California,38.0765,-120.1629,75
Sierra Madre,Sierra Madre,City,6037,CA,California,34.1687,-118.0504,11253
Sierra City,Sierra City,City,6091,CA,California,39.574,-120.6297,146
Sierra Brooks,Sierra Brooks,City,6091,CA,California,39.6426,-120.2155,377
Shoshone,Shoshone,City,6027,CA,California,35.951,-116.3056,27
Shingletown,Shingletown,City,6089,CA,California,40.5035,-121.86,2188
Shingle Springs,Shingle Springs,City,6017,CA,California,38.6665,-120.9371,3609
Sheridan,Sheridan,City,6061,CA,California,38.9695,-121.3552,1326
Shelter Cove,Shelter Cove,City,6023,CA,California,40.0389,-124.0558,759
Shell Ridge,Shell Ridge,City,6013,CA,California,37.906,-122.0345,1081
Shaver Lake,Shaver Lake,City,6019,CA,California,37.0971,-119.3245,362
Shasta Lake,Shasta Lake,City,6089,CA,California,40.679,-122.3775,10399
Shasta,Shasta,City,6089,CA,California,40.5911,-122.4797,1645
Shandon,Shandon,City,6079,CA,California,35.6536,-120.3831,1110
Shafter,Shafter,City,6029,CA,California,35.4794,-119.2013,19897
Seville,Seville,City,6107,CA,California,36.4835,-119.2259,426
Sereno del Mar,Sereno del Mar,City,6097,CA,California,38.3836,-123.0733,35
Sequoia Crest,Sequoia Crest,City,6107,CA,California,36.1858,-118.6256,38
Selma,Selma,City,6019,CA,California,36.5715,-119.6143,24545
Seeley,Seeley,City,6025,CA,California,32.7893,-115.6843,1781
Sebastopol,Sebastopol,City,6097,CA,California,38.4001,-122.8275,7563
Seaside,Seaside,City,6053,CA,California,36.6224,-121.8199,116189
Searles Valley,Searles Valley,City,6071,CA,California,35.77,-117.3967,1597
Seal Beach,Seal Beach,City,6059,CA,California,33.7542,-118.0714,25216
Seacliff,Seacliff,City,6087,CA,California,36.977,-121.9176,3414
Sea Ranch,Sea Ranch,City,6097,CA,California,38.7165,-123.4527,1078
Scotts Valley,Scotts Valley,City,6087,CA,California,37.0555,-122.0118,12317
Scotia,Scotia,City,6023,CA,California,40.4774,-124.1032,470
Sausalito,Sausalito,City,6041,CA,California,37.8581,-122.4933,7260
Sattley,Sattley,City,6091,CA,California,39.6265,-120.4357,54
Saticoy,Saticoy,City,6111,CA,California,34.2819,-119.1454,1818
Saratoga,Saratoga,City,6085,CA,California,37.2684,-122.0263,31194
Saranap,Saranap,City,6013,CA,California,37.8878,-122.076,6148
Santee,Santee,City,6073,CA,California,32.8554,-116.9851,59679
Santa Ynez,Santa Ynez,City,6083,CA,California,34.6168,-120.0948,4679
Santa Venetia,Santa Venetia,City,6041,CA,California,38.0056,-122.5033,3926
Santa Susana,Santa Susana,City,6111,CA,California,34.2586,-118.6642,901
Santa Rosa Valley,Santa Rosa Valley,City,6111,CA,California,34.2459,-118.9018,2371
Santa Rosa,Santa Rosa,City,6097,CA,California,38.4458,-122.7067,314196
Santa Paula,Santa Paula,City,6111,CA,California,34.3545,-119.0656,30741
Santa Nella,Santa Nella,City,6047,CA,California,37.1012,-121.0157,1765
Santa Monica,Santa Monica,City,6037,CA,California,34.0235,-118.481,92828
Santa Maria,Santa Maria,City,6083,CA,California,34.9333,-120.4431,142230
Santa Margarita,Santa Margarita,City,6079,CA,California,35.3895,-120.6081,800
Santa Fe Springs,Santa Fe Springs,City,6037,CA,California,33.9329,-118.0625,18817
Santa Cruz,Santa Cruz,City,6087,CA,California,36.9789,-122.0346,165933
Santa Clarita,Santa Clarita,City,6037,CA,California,34.4175,-118.4964,275230
Santa Clara,Santa Clara,City,6085,CA,California,37.3646,-121.968,127922
Santa Barbara,Santa Barbara,City,6083,CA,California,34.4285,-119.7202,198240
Santa Ana,Santa Ana,City,6059,CA,California,33.7367,-117.8819,313818
Sanger,Sanger,City,6019,CA,California,36.699,-119.5575,26424
Sand City,Sand City,City,6053,CA,California,36.6184,-121.8477,348
San Simeon,San Simeon,City,6079,CA,California,35.6182,-121.1374,510
San Ramon,San Ramon,City,6013,CA,California,37.7624,-121.9365,85688
San Rafael,San Rafael,City,6041,CA,California,37.9905,-122.5221,61158
San Pasqual,San Pasqual,City,6037,CA,California,34.1393,-118.1027,1937
San Pablo,San Pablo,City,6013,CA,California,37.9629,-122.3426,31975
San Miguel,San Miguel,City,6013,CA,California,37.8867,-122.0368,3573
San Mateo,San Mateo,City,6081,CA,California,37.5522,-122.3121,105087
San Martin,San Martin,City,6085,CA,California,37.0829,-121.5963,6655
San Marino,San Marino,City,6037,CA,California,34.1224,-118.1132,12620
San Marcos,San Marcos,City,6073,CA,California,33.135,-117.1743,94313
San Luis Obispo,San Luis Obispo,City,6079,CA,California,35.2669,-120.669,47257
San Lucas,San Lucas,City,6053,CA,California,36.1283,-121.0218,358
San Lorenzo,San Lorenzo,City,6001,CA,California,37.6733,-122.1332,30420
San Leandro,San Leandro,City,6001,CA,California,37.7074,-122.1599,91176
San Juan Capistrano,San Juan Capistrano,City,6059,CA,California,33.5008,-117.6544,35319
San Juan Bautista,San Juan Bautista,City,6069,CA,California,36.845,-121.5371,1896
San Jose,San Jose,City,6085,CA,California,37.3012,-121.848,1729879
San Joaquin,San Joaquin,City,6019,CA,California,36.6057,-120.1897,3743
San Jacinto,San Jacinto,City,6065,CA,California,33.797,-116.9916,53299
San Geronimo,San Geronimo,City,6041,CA,California,38.0067,-122.6633,292
San Gabriel,San Gabriel,City,6037,CA,California,34.0949,-118.099,39673
San Francisco,San Francisco,City,6075,CA,California,37.7558,-122.4449,3290197
San Fernando,San Fernando,City,6037,CA,California,34.2886,-118.4362,24086
San Dimas,San Dimas,City,6037,CA,California,34.1082,-117.809,34775
San Diego Country Estates,San Diego Country Estates,City,6073,CA,California,33.0094,-116.7874,10366
San Diego,San Diego,City,6073,CA,California,32.8313,-117.1222,3084174
San Clemente,San Clemente,City,6059,CA,California,33.4499,-117.6102,64600
San Carlos,San Carlos,City,6081,CA,California,37.4982,-122.2677,30754
San Buenaventura,San Buenaventura,City,6111,CA,California,34.2741,-119.2314,110572
San Bruno,San Bruno,City,6081,CA,California,37.6256,-122.4313,43775
San Bernardino,San Bernardino,City,6071,CA,California,34.1416,-117.2943,220821
San Ardo,San Ardo,City,6053,CA,California,36.0238,-120.9074,579
San Antonio Heights,San Antonio Heights,City,6071,CA,California,34.1573,-117.6592,3111
San Anselmo,San Anselmo,City,6041,CA,California,37.9821,-122.5699,12795
San Andreas,San Andreas,City,6009,CA,California,38.1911,-120.6763,3025
Samoa,Samoa,City,6023,CA,California,40.8146,-124.1893,237
Salyer,Salyer,City,6105,CA,California,40.886,-123.5807,413
Salton Sea Beach,Salton Sea Beach,City,6025,CA,California,33.3759,-116.0113,324
Salton City,Salton City,City,6025,CA,California,33.2994,-115.9609,4900
Salmon Creek,Salmon Creek,City,6097,CA,California,38.3462,-123.0595,14
Salinas,Salinas,City,6053,CA,California,36.6883,-121.6317,199290
Salida,Salida,City,6099,CA,California,37.7083,-121.0842,14690
Sage,Sage,City,6065,CA,California,33.5983,-116.9154,2866
Sacramento,Sacramento,City,6067,CA,California,38.5677,-121.4685,1924167
Rutherford,Rutherford,City,6055,CA,California,38.4568,-122.4231,104
Ruth,Ruth,City,6105,CA,California,40.2943,-123.3483,157
Running Springs,Running Springs,City,6071,CA,California,34.2104,-117.1147,3998
Rumsey,Rumsey,City,6113,CA,California,38.8902,-122.2404,169
Rowland Heights,Rowland Heights,City,6037,CA,California,33.9716,-117.8912,48765
Rouse,Rouse,City,6099,CA,California,37.6196,-121.0084,1355
Round Valley,Round Valley,City,6027,CA,California,37.407,-118.5817,573
Round Mountain,Round Mountain,City,6089,CA,California,40.8006,-121.9375,112
Rough and Ready,Rough and Ready,City,6057,CA,California,39.234,-121.1381,421
Rossmoor,Rossmoor,City,6059,CA,California,33.7887,-118.0803,11822
Ross,Ross,City,6041,CA,California,37.9638,-122.5615,2405
Roseville,Roseville,City,6061,CA,California,38.7703,-121.3196,145687
Rosemont,Rosemont,City,6067,CA,California,38.5478,-121.3553,24343
Rosemead,Rosemead,City,6037,CA,California,34.0689,-118.0823,51698
Rosedale,Rosedale,City,6029,CA,California,35.3886,-119.2058,18875
Rose Hills,Rose Hills,City,6037,CA,California,34.0089,-118.0419,2596
Rosamond,Rosamond,City,6029,CA,California,34.8658,-118.2155,20574
Romoland,Romoland,City,6065,CA,California,33.7648,-117.1572,2781
Rollingwood,Rollingwood,City,6013,CA,California,37.9654,-122.3306,3535
Rolling Hills Estates,Rolling Hills Estates,City,6037,CA,California,33.7783,-118.3509,8305
Rolling Hills,Rolling Hills,City,6037,CA,California,33.7601,-118.3471,1436
Rohnert Park,Rohnert Park,City,6097,CA,California,38.3479,-122.6965,44420
Rodriguez Camp,Rodriguez Camp,City,6107,CA,California,35.809,-119.1388,70
Rodeo,Rodeo,City,6013,CA,California,38.0367,-122.2526,9575
Rocklin,Rocklin,City,6061,CA,California,38.8075,-121.2489,70317
Robinson Mill,Robinson Mill,City,6007,CA,California,39.4857,-121.3202,38
Robbins,Robbins,City,6101,CA,California,38.867,-121.7056,406
Riverside,Riverside,City,6065,CA,California,33.9381,-117.3949,2022285
Rivergrove,Rivergrove,City,6029,CA,California,35.4403,-118.9411,39
Riverdale Park,Riverdale Park,City,6099,CA,California,37.6028,-121.0425,1086
Riverdale,Riverdale,City,6019,CA,California,36.4304,-119.8671,2513
Riverbank,Riverbank,City,6099,CA,California,37.726,-120.9433,24714
River Pines,River Pines,City,6005,CA,California,38.5455,-120.7428,451
Ripon,Ripon,City,6077,CA,California,37.7417,-121.131,15961
Ripley,Ripley,City,6065,CA,California,33.5238,-114.653,598
Rio del Mar,Rio del Mar,City,6087,CA,California,36.9607,-121.8807,9264
Rio Vista,Rio Vista,City,6095,CA,California,38.1765,-121.7025,9850
Rio Oso,Rio Oso,City,6101,CA,California,38.9518,-121.531,394
Rio Linda,Rio Linda,City,6067,CA,California,38.6875,-121.4417,17181
Rio Dell,Rio Dell,City,6023,CA,California,40.5023,-124.1105,3385
Ridgemark,Ridgemark,City,6069,CA,California,36.8082,-121.3623,2790
Ridgecrest Heights,Ridgecrest Heights,City,6029,CA,California,35.6019,-117.7042,251
Ridgecrest,Ridgecrest,City,6029,CA,California,35.6308,-117.6622,27989
Richvale,Richvale,City,6007,CA,California,39.4937,-121.7508,203
Richmond,Richmond,City,6013,CA,California,37.9477,-122.3389,115677
Richgrove,Richgrove,City,6107,CA,California,35.7966,-119.1069,1830
Richfield,Richfield,City,6103,CA,California,39.9738,-122.1732,499
Rialto,Rialto,City,6071,CA,California,34.1175,-117.3892,103799
Rexland Acres,Rexland Acres,City,6029,CA,California,35.3051,-118.997,3728
Reliez Valley,Reliez Valley,City,6013,CA,California,37.9399,-122.1027,3168
Reedley,Reedley,City,6019,CA,California,36.5988,-119.4471,25168
Redwood Valley,Redwood Valley,City,6045,CA,California,39.2689,-123.2023,1798
Redwood City,Redwood City,City,6081,CA,California,37.5025,-122.2253,83905
Redway,Redway,City,6023,CA,California,40.1208,-123.822,1537
Redondo Beach,Redondo Beach,City,6037,CA,California,33.8577,-118.3765,70998
Redlands,Redlands,City,6071,CA,California,34.0512,-117.1712,72649
Redding,Redding,City,6089,CA,California,40.5698,-122.365,121498
Redcrest,Redcrest,City,6023,CA,California,40.3988,-123.9474,19
Red Corral,Red Corral,City,6005,CA,California,38.4121,-120.6072,1838
Red Bluff,Red Bluff,City,6103,CA,California,40.1735,-122.2413,14557
Randsburg,Randsburg,City,6029,CA,California,35.368,-117.6607,78
Rancho Tehama Reserve,Rancho Tehama Reserve,City,6103,CA,California,40.001,-122.442,1700
Rancho Santa Margarita,Rancho Santa Margarita,City,6059,CA,California,33.6318,-117.5988,48190
Rancho Santa Fe,Rancho Santa Fe,City,6073,CA,California,33.024,-117.1992,2914
Rancho San Diego,Rancho San Diego,City,6073,CA,California,32.7624,-116.9197,22019
Rancho Palos Verdes,Rancho Palos Verdes,City,6037,CA,California,33.7554,-118.3634,42316
Rancho Murieta,Rancho Murieta,City,6067,CA,California,38.5085,-121.0716,5874
Rancho Mission Viejo,Rancho Mission Viejo,City,6059,CA,California,33.514,-117.5618,9298
Rancho Mirage,Rancho Mirage,City,6065,CA,California,33.7635,-116.4271,17129
Rancho Cucamonga,Rancho Cucamonga,City,6071,CA,California,34.1247,-117.5667,173946
Rancho Cordova,Rancho Cordova,City,6067,CA,California,38.5737,-121.2527,78358
Rancho Calaveras,Rancho Calaveras,City,6009,CA,California,38.1248,-120.857,5893
Ramona,Ramona,City,6073,CA,California,33.0474,-116.8766,21853
Raisin City,Raisin City,City,6019,CA,California,36.6033,-119.9092,306
Rainbow,Rainbow,City,6073,CA,California,33.4098,-117.1395,2129
Rail Road Flat,Rail Road Flat,City,6009,CA,California,38.3246,-120.5169,128
Rackerby,Rackerby,City,6007,CA,California,39.4261,-121.3542,166
Quincy,Quincy,City,6063,CA,California,39.931,-120.9548,1786
Quartz Hill,Quartz Hill,City,6037,CA,California,34.6527,-118.2163,10079
Pumpkin Center,Pumpkin Center,City,6029,CA,California,35.2653,-119.0324,135
Prunedale,Prunedale,City,6053,CA,California,36.8064,-121.6555,19893
Proberta,Proberta,City,6103,CA,California,40.0761,-122.1776,80
Princeton,Princeton,City,6011,CA,California,39.4016,-122.0194,316
Prattville,Prattville,City,6063,CA,California,40.206,-121.1575,56
Poway,Poway,City,6073,CA,California,32.9871,-117.0201,49005
Potter Valley,Potter Valley,City,6045,CA,California,39.319,-123.1122,460
Potrero,Potrero,City,6073,CA,California,32.6131,-116.6068,366
Potomac Park,Potomac Park,City,6029,CA,California,35.3636,-118.965,10517
Post Mountain,Post Mountain,City,6105,CA,California,40.416,-123.2316,29
Poso Park,Poso Park,City,6107,CA,California,35.8113,-118.6363,3
Posey,Posey,City,6107,CA,California,35.8039,-118.6787,0
Portola Valley,Portola Valley,City,6081,CA,California,37.3711,-122.2202,4458
Portola,Portola,City,6063,CA,California,39.8241,-120.4733,2204
Porterville,Porterville,City,6107,CA,California,36.0643,-119.0338,67887
Port Hueneme,Port Hueneme,City,6111,CA,California,34.1618,-119.2036,21954
Port Costa,Port Costa,City,6013,CA,California,38.0446,-122.185,247
Poplar-Cotton Center,Poplar-Cotton Center,City,6107,CA,California,36.0577,-119.1502,1948
Ponderosa,Ponderosa,City,6107,CA,California,36.1051,-118.5293,53
Pomona,Pomona,City,6037,CA,California,34.0585,-117.7626,151592
Pollock Pines,Pollock Pines,City,6017,CA,California,38.7575,-120.5921,6450
Point Reyes Station,Point Reyes Station,City,6041,CA,California,38.0847,-122.8093,295
Point Arena,Point Arena,City,6045,CA,California,38.9123,-123.6955,437
Plymouth,Plymouth,City,6005,CA,California,38.4776,-120.8584,1138
Plumas Lake,Plumas Lake,City,6115,CA,California,38.9845,-121.5634,8349
Plumas Eureka,Plumas Eureka,City,6063,CA,California,39.7982,-120.6645,428
Pleasure Point,Pleasure Point,City,6087,CA,California,36.9619,-121.9715,6222
Pleasanton,Pleasanton,City,6001,CA,California,37.6663,-121.8805,79558
Pleasant Hill,Pleasant Hill,City,6013,CA,California,37.9539,-122.0759,34649
Platina,Platina,City,6089,CA,California,40.3591,-122.9042,24
Planada,Planada,City,6047,CA,California,37.2902,-120.3217,3732
Plainview,Plainview,City,6107,CA,California,36.1431,-119.1355,493
Placerville,Placerville,City,6017,CA,California,38.7308,-120.7979,10777
Placentia,Placentia,City,6059,CA,California,33.8807,-117.8553,51951
Pi√±on Hills,Pinon Hills,City,6071,CA,California,34.4437,-117.6214,7641
Pixley,Pixley,City,6107,CA,California,35.9785,-119.3003,4137
Pittsburg,Pittsburg,City,6013,CA,California,38.0182,-121.8965,75701
Pismo Beach,Pismo Beach,City,6079,CA,California,35.1487,-120.6493,8058
Piru,Piru,City,6111,CA,California,34.4064,-118.8019,2203
Pioneer,Pioneer,City,6005,CA,California,38.4337,-120.586,1450
Pinole,Pinole,City,6013,CA,California,37.9931,-122.2833,19065
Pine Valley,Pine Valley,City,6073,CA,California,32.8415,-116.5107,1678
Pine Mountain Lake,Pine Mountain Lake,City,6109,CA,California,37.8599,-120.1844,3017
Pine Mountain Club,Pine Mountain Club,City,6029,CA,California,34.8446,-119.1669,2124
Pine Hills,Pine Hills,City,6023,CA,California,40.7313,-124.1551,3402
Pine Grove,Pine Grove,City,6005,CA,California,38.403,-120.6571,2864
Pine Flat,Pine Flat,City,6107,CA,California,35.8746,-118.6428,205
Pine Canyon,Pine Canyon,City,6053,CA,California,36.1757,-121.1498,2603
Pike,Pike,City,6091,CA,California,39.4278,-120.9997,154
Pierpoint,Pierpoint,City,6107,CA,California,36.1405,-118.6296,45
Piedmont,Piedmont,City,6001,CA,California,37.8225,-122.2301,11368
Pico Rivera,Pico Rivera,City,6037,CA,California,33.9901,-118.0888,62383
Phoenix Lake,Phoenix Lake,City,6109,CA,California,38.0076,-120.309,4852
Philo,Philo,City,6045,CA,California,39.0657,-123.445,206
Phillipsville,Phillipsville,City,6023,CA,California,40.2117,-123.7845,0
Phelan,Phelan,City,6071,CA,California,34.4398,-117.5248,18599
Peters,Peters,City,6077,CA,California,37.9763,-121.0439,457
Petaluma Center,Petaluma Center,City,6097,CA,California,38.2506,-122.7888,837
Petaluma,Petaluma,City,6097,CA,California,38.2423,-122.6266,66609
Pescadero,Pescadero,City,6081,CA,California,37.2507,-122.3725,362
Perris,Perris,City,6065,CA,California,33.7898,-117.2233,78106
Pepperdine University,Pepperdine University,City,6037,CA,California,34.0422,-118.7091,2764
Penryn,Penryn,City,6061,CA,California,38.8482,-121.1698,1073
Penngrove,Penngrove,City,6097,CA,California,38.3006,-122.6707,2187
Penn Valley,Penn Valley,City,6057,CA,California,39.1954,-121.1942,1124
Pearsonville,Pearsonville,City,6027,CA,California,35.8189,-117.8755,0
Paynes Creek,Paynes Creek,City,6103,CA,California,40.3409,-121.9174,47
Paxton,Paxton,City,6063,CA,California,40.0334,-121.0029,0
Patton Village,Patton Village,City,6035,CA,California,40.1407,-120.1782,822
Patterson Tract,Patterson Tract,City,6107,CA,California,36.3795,-119.2956,1696
Patterson,Patterson,City,6099,CA,California,37.4758,-121.1536,23517
Paskenta,Paskenta,City,6103,CA,California,39.8833,-122.5456,56
Pasatiempo,Pasatiempo,City,6087,CA,California,37.0034,-122.0265,1104
Pasadena,Pasadena,City,6037,CA,California,34.1597,-118.139,138771
Parlier,Parlier,City,6019,CA,California,36.6087,-119.5434,14666
Parkwood,Parkwood,City,6039,CA,California,36.9293,-120.0482,2496
Parkway,Parkway,City,6067,CA,California,38.4993,-121.452,16091
Parksdale,Parksdale,City,6039,CA,California,36.9465,-120.0212,2559
Parklawn,Parklawn,City,6099,CA,California,37.6071,-120.9803,1492
Paramount,Paramount,City,6037,CA,California,33.8977,-118.1651,53904
Paradise Park,Paradise Park,City,6087,CA,California,37.0062,-122.0425,608
Paradise,Paradise,City,6007,CA,California,39.7558,-121.6063,7730
Panorama Heights,Panorama Heights,City,6107,CA,California,35.8068,-118.627,57
Palos Verdes Estates,Palos Verdes Estates,City,6037,CA,California,33.7872,-118.3973,13403
Palo Verde,Palo Verde,City,6025,CA,California,33.4278,-114.7272,85
Palo Cedro,Palo Cedro,City,6089,CA,California,40.5658,-122.2425,3275
Palo Alto,Palo Alto,City,6085,CA,California,37.3905,-122.1468,68624
Palmdale,Palmdale,City,6037,CA,California,34.5944,-118.1057,167987
Palm Springs,Palm Springs,City,6065,CA,California,33.8017,-116.5382,44799
Palm Desert,Palm Desert,City,6065,CA,California,33.7378,-116.3695,51081
Palermo,Palermo,City,6007,CA,California,39.4313,-121.5225,5387
Pala,Pala,City,6073,CA,California,33.3639,-117.0675,966
Pajaro Dunes,Pajaro Dunes,City,6087,CA,California,36.8722,-121.8101,228
Pajaro,Pajaro,City,6053,CA,California,36.9017,-121.7417,3066
Pacifica,Pacifica,City,6081,CA,California,37.6113,-122.4782,38595
Pacific Grove,Pacific Grove,City,6053,CA,California,36.6188,-121.9259,15169
Pacheco,Pacheco,City,6013,CA,California,37.9878,-122.07,5129
Oxnard,Oxnard,City,6111,CA,California,34.1964,-119.1815,366330
Oroville East,Oroville East,City,6007,CA,California,39.4947,-121.4866,7701
Oroville,Oroville,City,6007,CA,California,39.4999,-121.5634,20409
Orosi,Orosi,City,6107,CA,California,36.5433,-119.2914,8701
Orland,Orland,City,6021,CA,California,39.7461,-122.1856,8168
Orinda,Orinda,City,6013,CA,California,37.8808,-122.179,19497
Orick,Orick,City,6023,CA,California,41.2909,-124.0692,300
Orcutt,Orcutt,City,6083,CA,California,34.8691,-120.4222,30940
Orangevale,Orangevale,City,6067,CA,California,38.6881,-121.2209,35729
Orange Cove,Orange Cove,City,6019,CA,California,36.6211,-119.3188,9680
Orange Blossom,Orange Blossom,City,6099,CA,California,37.8097,-120.7115,1204
Orange,Orange,City,6059,CA,California,33.8038,-117.8218,139195
Onyx,Onyx,City,6029,CA,California,35.6839,-118.2102,661
Ontario,Ontario,City,6071,CA,California,34.0393,-117.6064,175223
Ono,Ono,City,6089,CA,California,40.4801,-122.6257,72
Olivehurst,Olivehurst,City,6115,CA,California,39.0795,-121.5566,16262
Olde Stockdale,Olde Stockdale,City,6029,CA,California,35.3476,-119.0794,718
Old Stine,Old Stine,City,6029,CA,California,35.3478,-119.047,3759
Old Station,Old Station,City,6089,CA,California,40.6722,-121.4227,20
Old River,Old River,City,6029,CA,California,35.2671,-119.1055,6
Old Fig Garden,Old Fig Garden,City,6019,CA,California,36.7989,-119.8052,5683
Olancha,Olancha,City,6027,CA,California,36.2704,-118.0015,158
Ojai,Ojai,City,6111,CA,California,34.4488,-119.2469,7640
Oildale,Oildale,City,6029,CA,California,35.4293,-119.0306,34350
Ocotillo,Ocotillo,City,6025,CA,California,32.7431,-116.002,167
Oceanside,Oceanside,City,6073,CA,California,33.2247,-117.3083,174461
Oceano,Oceano,City,6079,CA,California,35.1019,-120.6088,7371
Occidental,Occidental,City,6097,CA,California,38.4004,-122.9349,1126
Oasis,Oasis,City,6065,CA,California,33.5275,-116.1261,2790
Oakville,Oakville,City,6055,CA,California,38.4383,-122.4067,0
Oakley,Oakley,City,6013,CA,California,37.9929,-121.6952,42996
Oakland,Oakland,City,6001,CA,California,37.7904,-122.2166,437548
Oakhurst,Oakhurst,City,6039,CA,California,37.3475,-119.6202,5272
Oakdale,Oakdale,City,6099,CA,California,37.7618,-120.8468,23016
Oak View,Oak View,City,6111,CA,California,34.403,-119.299,6169
Oak Shores,Oak Shores,City,6079,CA,California,35.7602,-120.9813,210
Oak Run,Oak Run,City,6089,CA,California,40.6902,-122.0285,410
Oak Park,Oak Park,City,6111,CA,California,34.185,-118.7669,13561
Oak Hills,Oak Hills,City,6071,CA,California,34.391,-117.4123,9123
Oak Glen,Oak Glen,City,6071,CA,California,34.0448,-116.9497,274
Nuevo,Nuevo,City,6065,CA,California,33.8011,-117.1414,7491
Nubieber,Nubieber,City,6035,CA,California,41.0967,-121.1816,38
Novato,Novato,City,6041,CA,California,38.092,-122.5575,53214
Norwalk,Norwalk,City,6037,CA,California,33.9069,-118.0829,103330
North Tustin,North Tustin,City,6059,CA,California,33.7636,-117.7947,25708
North Shore,North Shore,City,6065,CA,California,33.5157,-115.9092,2982
North San Juan,North San Juan,City,6057,CA,California,39.3719,-121.106,103
North Richmond,North Richmond,City,6013,CA,California,37.9641,-122.3711,3928
North Lakeport,North Lakeport,City,6033,CA,California,39.0883,-122.9053,2986
North Highlands,North Highlands,City,6067,CA,California,38.6713,-121.3721,48424
North Gate,North Gate,City,6013,CA,California,37.9055,-121.9978,687
North Fork,North Fork,City,6039,CA,California,37.2306,-119.5199,3078
North Fair Oaks,North Fair Oaks,City,6081,CA,California,37.4754,-122.2034,14360
North El Monte,North El Monte,City,6037,CA,California,34.1029,-118.0239,3796
North Edwards,North Edwards,City,6029,CA,California,35.0474,-117.8093,1037
North Auburn,North Auburn,City,6061,CA,California,38.9306,-121.082,14307
Norris Canyon,Norris Canyon,City,6013,CA,California,37.7457,-121.9881,895
Nord,Nord,City,6007,CA,California,39.7739,-121.9549,313
Norco,Norco,City,6065,CA,California,33.9252,-117.5498,26176
Nipomo,Nipomo,City,6079,CA,California,35.0319,-120.4985,18440
Nipinnawasee,Nipinnawasee,City,6039,CA,California,37.4031,-119.7293,368
Niland,Niland,City,6025,CA,California,33.2387,-115.5146,452
Nicolaus,Nicolaus,City,6101,CA,California,38.8982,-121.5729,136
Nice,Nice,City,6033,CA,California,39.1266,-122.8525,2655
Nicasio,Nicasio,City,6041,CA,California,38.0606,-122.7008,62
Newport Beach,Newport Beach,City,6059,CA,California,33.6151,-117.8668,85806
Newman,Newman,City,6099,CA,California,37.3156,-121.0212,12154
Newell,Newell,City,6049,CA,California,41.8898,-121.3675,396
Newcastle,Newcastle,City,6061,CA,California,38.8677,-121.1318,1505
Newark,Newark,City,6001,CA,California,37.5201,-122.0307,47815
New Pine Creek,New Pine Creek,City,6049,CA,California,41.9872,-120.3009,83
New Cuyama,New Cuyama,City,6083,CA,California,34.943,-119.6819,711
Nevada City,Nevada City,City,6057,CA,California,39.2607,-121.0231,3097
Needles,Needles,City,6071,CA,California,34.8164,-114.6189,4921
National City,National City,City,6073,CA,California,32.6654,-117.0983,56846
Napa,Napa,City,6055,CA,California,38.2975,-122.301,86130
Myrtletown,Myrtletown,City,6023,CA,California,40.7888,-124.1286,4857
Myers Flat,Myers Flat,City,6023,CA,California,40.2666,-123.8737,131
Muscoy,Muscoy,City,6071,CA,California,34.1552,-117.3477,10925
Murrieta,Murrieta,City,6065,CA,California,33.5719,-117.1909,509526
Murphys,Murphys,City,6009,CA,California,38.1371,-120.4488,1928
Muir Beach,Muir Beach,City,6041,CA,California,37.8655,-122.5859,430
Mountain View Acres,Mountain View Acres,City,6071,CA,California,34.4976,-117.3472,3337
Mountain View,Mountain View,City,6085,CA,California,37.4001,-122.0796,82409
Mountain Ranch,Mountain Ranch,City,6009,CA,California,38.2117,-120.5311,256
Mountain Mesa,Mountain Mesa,City,6029,CA,California,35.6411,-118.4047,867
Mountain Meadows,Mountain Meadows,City,6029,CA,California,35.0956,-118.4335,222
Mountain House,Mountain House,City,6077,CA,California,37.7673,-121.5449,23132
Mountain Gate,Mountain Gate,City,6089,CA,California,40.7185,-122.3262,795
Mountain Center,Mountain Center,City,6065,CA,California,33.7112,-116.7248,35
Mount Shasta,Mount Shasta,City,6093,CA,California,41.3206,-122.315,3247
Mount Laguna,Mount Laguna,City,6073,CA,California,32.8711,-116.4247,124
Mount Hermon,Mount Hermon,City,6087,CA,California,37.051,-122.0533,1254
Mount Hebron,Mount Hebron,City,6093,CA,California,41.7857,-122.008,48
Mount Bullion,Mount Bullion,City,6043,CA,California,37.5082,-120.0437,133
Moss Landing,Moss Landing,City,6053,CA,California,36.8019,-121.7872,11
Moss Beach,Moss Beach,City,6081,CA,California,37.5184,-122.5036,3227
Moskowite Corner,Moskowite Corner,City,6055,CA,California,38.4464,-122.1944,109
Morro Bay,Morro Bay,City,6079,CA,California,35.3682,-120.8482,10785
Morongo Valley,Morongo Valley,City,6071,CA,California,34.0724,-116.5627,3159
Morgan Hill,Morgan Hill,City,6085,CA,California,37.1325,-121.6419,45267
Moreno Valley,Moreno Valley,City,6065,CA,California,33.9244,-117.2045,208371
Moraga,Moraga,City,6013,CA,California,37.8439,-122.1225,16750
Morada,Morada,City,6077,CA,California,38.0386,-121.2456,3320
Moorpark,Moorpark,City,6111,CA,California,34.2861,-118.8768,36201
Monument Hills,Monument Hills,City,6113,CA,California,38.6641,-121.8754,1508
Montgomery Creek,Montgomery Creek,City,6089,CA,California,40.8415,-121.9215,196
Monterey Park Tract,Monterey Park Tract,City,6099,CA,California,37.5268,-121.0115,228
Monterey Park,Monterey Park,City,6037,CA,California,34.0497,-118.1326,61153
Monterey,Monterey,City,6053,CA,California,36.5919,-121.8808,30014
Montecito,Montecito,City,6083,CA,California,34.4384,-119.6309,8494
Montebello,Montebello,City,6037,CA,California,34.0155,-118.1108,62828
Monte Sereno,Monte Sereno,City,6085,CA,California,37.2405,-121.9881,3502
Monte Rio,Monte Rio,City,6097,CA,California,38.4684,-123.0148,864
Montclair,Montclair,City,6071,CA,California,34.0715,-117.6981,37871
Montara,Montara,City,6081,CA,California,37.5483,-122.4923,2879
Montalvin Manor,Montalvin Manor,City,6013,CA,California,37.9977,-122.33,2232
Montague,Montague,City,6093,CA,California,41.7275,-122.5302,1446
Monson,Monson,City,6107,CA,California,36.4924,-119.336,178
Monrovia,Monrovia,City,6037,CA,California,34.165,-117.9921,37999
Mono Vista,Mono Vista,City,6109,CA,California,38.0123,-120.2697,3415
Mono City,Mono City,City,6051,CA,California,38.0321,-119.1474,197
Monmouth,Monmouth,City,6019,CA,California,36.5656,-119.7405,111
Mokelumne Hill,Mokelumne Hill,City,6009,CA,California,38.3057,-120.7061,680
Mojave,Mojave,City,6029,CA,California,35.0139,-118.1896,3620
Mohawk Vista,Mohawk Vista,City,6063,CA,California,39.8048,-120.5883,42
Modjeska,Modjeska,City,6059,CA,California,33.7091,-117.6299,838
Modesto,Modesto,City,6099,CA,California,37.6375,-121.0028,382994
Mission Viejo,Mission Viejo,City,6059,CA,California,33.6096,-117.6551,588540
Mission Hills,Mission Hills,City,6083,CA,California,34.6861,-120.4404,3435
Mission Canyon,Mission Canyon,City,6083,CA,California,34.4549,-119.7121,2353
Miranda,Miranda,City,6023,CA,California,40.2289,-123.8173,412
Mira Monte,Mira Monte,City,6111,CA,California,34.4312,-119.2878,6893
Minkler,Minkler,City,6019,CA,California,36.7276,-119.4589,789
Mineral,Mineral,City,6103,CA,California,40.3755,-121.5694,210
Milpitas,Milpitas,City,6085,CA,California,37.4336,-121.8921,79593
Millville,Millville,City,6089,CA,California,40.5576,-122.1697,765
Millerton,Millerton,City,6019,CA,California,36.9769,-119.6658,758
Millbrae,Millbrae,City,6081,CA,California,37.5994,-122.4023,23083
Mill Valley,Mill Valley,City,6041,CA,California,37.9086,-122.5421,14240
Milford,Milford,City,6035,CA,California,40.1634,-120.3686,103
Midway City,Midway City,City,6059,CA,California,33.7452,-117.9849,8440
Midpines,Midpines,City,6043,CA,California,37.5524,-119.9289,295
Middletown,Middletown,City,6033,CA,California,38.7518,-122.6221,1577
Mi-Wuk Village,Mi-Wuk Village,City,6109,CA,California,38.057,-120.1793,1076
Meyers,Meyers,City,6017,CA,California,38.8344,-120.0189,2455
Mexican Colony,Mexican Colony,City,6029,CA,California,35.4689,-119.2687,363
Mettler,Mettler,City,6029,CA,California,35.0635,-118.9729,232
Mesa Vista,Mesa Vista,City,6003,CA,California,38.8102,-119.8033,273
Mesa Verde,Mesa Verde,City,6065,CA,California,33.5957,-114.7317,918
Mesa,Mesa,City,6027,CA,California,37.419,-118.5424,383
Meridian,Meridian,City,6101,CA,California,39.1405,-121.9078,360
Merced,Merced,City,6047,CA,California,37.3057,-120.4779,157617
Mentone,Mentone,City,6071,CA,California,34.0609,-117.1108,9708
Menlo Park,Menlo Park,City,6081,CA,California,37.4685,-122.1673,33677
Menifee,Menifee,City,6065,CA,California,33.6909,-117.1849,101089
Mendota,Mendota,City,6019,CA,California,36.7555,-120.3776,12534
Mendocino,Mendocino,City,6045,CA,California,39.311,-123.7908,715
Meiners Oaks,Meiners Oaks,City,6111,CA,California,34.4553,-119.2702,4065
Mecca,Mecca,City,6065,CA,California,33.5767,-116.0645,4451
Meadowbrook,Meadowbrook,City,6065,CA,California,33.7253,-117.2851,3874
Meadow Vista,Meadow Vista,City,6061,CA,California,39.0029,-121.0303,3537
Meadow Valley,Meadow Valley,City,6063,CA,California,39.9323,-121.083,395
Mead Valley,Mead Valley,City,6065,CA,California,33.8333,-117.2852,20698
McSwain,McSwain,City,6047,CA,California,37.3145,-120.5868,4606
McKittrick,McKittrick,City,6029,CA,California,35.298,-119.6249,113
McKinleyville,McKinleyville,City,6023,CA,California,40.9488,-124.0857,16457
McGee Creek,McGee Creek,City,6051,CA,California,37.5727,-118.791,0
McFarland,McFarland,City,6029,CA,California,35.6781,-119.2413,14085
McCloud,McCloud,City,6093,CA,California,41.2541,-122.1361,870
McClenney Tract,McClenney Tract,City,6107,CA,California,35.822,-118.6477,36
McClellan Park,McClellan Park,City,6067,CA,California,38.6629,-121.4016,991
McArthur,McArthur,City,6089,CA,California,41.0414,-121.4068,418
Maywood,Maywood,City,6037,CA,California,33.9886,-118.1877,25477
Mayflower Village,Mayflower Village,City,6037,CA,California,34.116,-118.0096,5448
Mayfair,Mayfair,City,6019,CA,California,36.7694,-119.7612,5299
Maxwell,Maxwell,City,6011,CA,California,39.2771,-122.1946,1107
Mather,Mather,City,6067,CA,California,38.5488,-121.2831,4707
Matheny,Matheny,City,6107,CA,California,36.1707,-119.3516,1078
Marysville,Marysville,City,6115,CA,California,39.1518,-121.5835,12451
Martinez,Martinez,City,6013,CA,California,37.9985,-122.1161,37308
Martell,Martell,City,6005,CA,California,38.3644,-120.8036,223
Markleeville,Markleeville,City,6003,CA,California,38.684,-119.8228,183
Mariposa,Mariposa,City,6043,CA,California,37.4912,-119.9722,1305
Marina del Rey,Marina del Rey,City,6037,CA,California,33.9765,-118.4486,9355
Marina,Marina,City,6053,CA,California,36.681,-121.7892,22246
Marin City,Marin City,City,6041,CA,California,37.871,-122.5137,3094
Maricopa,Maricopa,City,6029,CA,California,35.0516,-119.4058,1315
March ARB,March ARB,City,6065,CA,California,33.8888,-117.2776,1103
Manton,Manton,City,6103,CA,California,40.4202,-121.854,291
Manteca,Manteca,City,6077,CA,California,37.7927,-121.2264,99764
Manila,Manila,City,6023,CA,California,40.8515,-124.163,716
Manhattan Beach,Manhattan Beach,City,6037,CA,California,33.8894,-118.3967,35585
Manchester,Manchester,City,6045,CA,California,38.9744,-123.6909,280
Mammoth Lakes,Mammoth Lakes,City,6051,CA,California,37.6273,-118.99,7321
Malibu,Malibu,City,6037,CA,California,34.037,-118.7839,10915
Malaga,Malaga,City,6019,CA,California,36.6816,-119.7318,931
Magalia,Magalia,City,6007,CA,California,39.8228,-121.6078,10537
Madison,Madison,City,6113,CA,California,38.675,-121.9702,478
Madera Ranchos,Madera Ranchos,City,6039,CA,California,36.9279,-119.8773,3432
Madera Acres,Madera Acres,City,6039,CA,California,37.0123,-120.0799,10106
Madera,Madera,City,6039,CA,California,36.963,-120.0778,82772
Madeline,Madeline,City,6035,CA,California,41.0514,-120.4755,22
Mad River,Mad River,City,6105,CA,California,40.4325,-123.492,347
Macdoel,Macdoel,City,6093,CA,California,41.8263,-122.0059,94
Mabie,Mabie,City,6063,CA,California,39.7771,-120.5447,72
Lytle Creek,Lytle Creek,City,6071,CA,California,34.2499,-117.5044,640
Lynwood,Lynwood,City,6037,CA,California,33.924,-118.2016,67497
Lucerne Valley,Lucerne Valley,City,6071,CA,California,34.4427,-116.9021,5998
Lucerne,Lucerne,City,6033,CA,California,39.0698,-122.7746,3004
Lucas Valley-Marinwood,Lucas Valley-Marinwood,City,6041,CA,California,38.0405,-122.5765,6546
Loyola,Loyola,City,6085,CA,California,37.3503,-122.0979,3564
Loyalton,Loyalton,City,6091,CA,California,39.6768,-120.2448,999
Lower Lake,Lower Lake,City,6033,CA,California,38.9118,-122.6084,1036
Lost Hills,Lost Hills,City,6029,CA,California,35.6254,-119.6788,1768
Los Ranchos,Los Ranchos,City,6079,CA,California,35.2104,-120.6295,1548
Los Osos,Los Osos,City,6079,CA,California,35.3065,-120.8242,15692
Los Olivos,Los Olivos,City,6083,CA,California,34.664,-120.117,983
Los Molinos,Los Molinos,City,6103,CA,California,40.027,-122.0981,1906
Los Gatos,Los Gatos,City,6085,CA,California,37.2304,-121.9562,33309
Los Berros,Los Berros,City,6079,CA,California,35.0809,-120.545,165
Los Banos,Los Banos,City,6047,CA,California,37.063,-120.8406,44421
Los Angeles,Los Angeles,City,6037,CA,California,34.1141,-118.4068,12121244
Los Altos Hills,Los Altos Hills,City,6085,CA,California,37.3669,-122.1387,8520
Los Altos,Los Altos,City,6085,CA,California,37.3684,-122.0965,31562
Los Alamos,Los Alamos,City,6083,CA,California,34.7419,-120.2746,1343
Los Alamitos,Los Alamitos,City,6059,CA,California,33.7971,-118.0592,11780
Loomis,Loomis,City,6061,CA,California,38.8093,-121.1955,6791
Lookout,Lookout,City,6049,CA,California,41.2094,-121.1543,43
Long Beach,Long Beach,City,6037,CA,California,33.7977,-118.167,466565
Long Barn,Long Barn,City,6109,CA,California,38.0957,-120.1285,97
Lone Pine,Lone Pine,City,6027,CA,California,36.5774,-118.0777,1580
London,London,City,6107,CA,California,36.4805,-119.445,1531
Lompoc,Lompoc,City,6083,CA,California,34.6618,-120.4714,44232
Lompico,Lompico,City,6087,CA,California,37.11,-122.0523,925
Lomita,Lomita,City,6037,CA,California,33.7933,-118.3175,20884
Loma Rica,Loma Rica,City,6115,CA,California,39.3204,-121.4038,2782
Loma Mar,Loma Mar,City,6081,CA,California,37.2658,-122.3007,252
Loma Linda,Loma Linda,City,6071,CA,California,34.045,-117.2498,24712
Loleta,Loleta,City,6023,CA,California,40.6408,-124.2225,584
Lodoga,Lodoga,City,6011,CA,California,39.3041,-122.5058,164
Lodi,Lodi,City,6077,CA,California,38.1218,-121.2932,69467
Lockwood,Lockwood,City,6005,CA,California,38.4867,-120.6035,579
Lockwood,Lockwood,City,6053,CA,California,35.9412,-121.0802,322
Lockeford,Lockeford,City,6077,CA,California,38.1508,-121.1554,4076
Livingston,Livingston,City,6047,CA,California,37.3875,-120.7248,14078
Livermore,Livermore,City,6001,CA,California,37.6868,-121.7607,88403
Live Oak,Live Oak,City,6087,CA,California,36.986,-121.9804,16948
Littlerock,Littlerock,City,6037,CA,California,34.5232,-117.9808,1144
Little Valley,Little Valley,City,6035,CA,California,40.8931,-121.178,28
Little River,Little River,City,6045,CA,California,39.2702,-123.7818,186
Little Grass Valley,Little Grass Valley,City,6063,CA,California,39.7252,-120.959,0
Litchfield,Litchfield,City,6035,CA,California,40.3877,-120.3807,151
Linnell Camp,Linnell Camp,City,6107,CA,California,36.3089,-119.2225,670
Lindsay,Lindsay,City,6107,CA,California,36.2082,-119.0897,12551
Linden,Linden,City,6077,CA,California,38.0186,-121.0994,1899
Lindcove,Lindcove,City,6107,CA,California,36.358,-119.0646,135
Linda,Linda,City,6115,CA,California,39.1241,-121.5421,23304
Lincoln Village,Lincoln Village,City,6077,CA,California,38.0054,-121.334,3503
Lincoln,Lincoln,City,6061,CA,California,38.8774,-121.2937,49203
Likely,Likely,City,6049,CA,California,41.2254,-120.5033,0
Lexington Hills,Lexington Hills,City,6085,CA,California,37.1617,-121.9879,2532
Lewiston,Lewiston,City,6105,CA,California,40.6969,-122.8225,1817
Leona Valley,Leona Valley,City,6037,CA,California,34.6147,-118.299,1486
Lenwood,Lenwood,City,6071,CA,California,34.8861,-117.1078,4353
Lennox,Lennox,City,6037,CA,California,33.938,-118.3586,21514
Lemoore Station,Lemoore Station,City,6031,CA,California,36.2633,-119.9048,6692
Lemoore,Lemoore,City,6031,CA,California,36.2949,-119.7983,26631
Lemon Hill,Lemon Hill,City,6067,CA,California,38.5172,-121.4573,14471
Lemon Grove,Lemon Grove,City,6073,CA,California,32.7331,-117.0344,27513
Lemon Cove,Lemon Cove,City,6107,CA,California,36.3809,-119.0284,504
Leggett,Leggett,City,6045,CA,California,39.8636,-123.7253,45
Lee Vining,Lee Vining,City,6051,CA,California,37.9546,-119.1221,106
Lebec,Lebec,City,6029,CA,California,34.845,-118.8992,868
Le Grand,Le Grand,City,6047,CA,California,37.2288,-120.254,1635
Laytonville,Laytonville,City,6045,CA,California,39.6715,-123.4945,770
Lawndale,Lawndale,City,6037,CA,California,33.8884,-118.3531,32035
Laton,Laton,City,6019,CA,California,36.4314,-119.6976,1551
Lathrop,Lathrop,City,6077,CA,California,37.809,-121.3131,28078
Las Lomas,Las Lomas,City,6053,CA,California,36.8688,-121.7317,3614
Las Flores,Las Flores,City,6059,CA,California,33.584,-117.6237,5227
Larkspur,Larkspur,City,6041,CA,California,37.9393,-122.5312,12972
Larkfield-Wikiup,Larkfield-Wikiup,City,6097,CA,California,38.513,-122.7536,7595
Lancaster,Lancaster,City,6037,CA,California,34.6935,-118.1753,381732
Lanare,Lanare,City,6019,CA,California,36.4377,-119.9322,499
Lamont,Lamont,City,6029,CA,California,35.2659,-118.9159,14269
Lakewood,Lakewood,City,6037,CA,California,33.8471,-118.1222,82419
Lakeview,Lakeview,City,6065,CA,California,33.8285,-117.1233,2307
Lakeside,Lakeside,City,6073,CA,California,32.856,-116.904,21383
Lakeside,Lakeside,City,6029,CA,California,35.2347,-119.0829,1420
Lakeport,Lakeport,City,6033,CA,California,39.0392,-122.9218,5048
Lakeland Village,Lakeland Village,City,6065,CA,California,33.648,-117.3706,12455
Lakehead,Lakehead,City,6089,CA,California,40.9007,-122.3924,627
Lake of the Woods,Lake of the Woods,City,6029,CA,California,34.8225,-119.0025,722
Lake of the Pines,Lake of the Pines,City,6057,CA,California,39.0357,-121.059,4548
Lake Wildwood,Lake Wildwood,City,6057,CA,California,39.2349,-121.2002,4928
Lake Sherwood,Lake Sherwood,City,6111,CA,California,34.134,-118.8804,1729
Lake Shastina,Lake Shastina,City,6093,CA,California,41.5213,-122.3756,2880
Lake San Marcos,Lake San Marcos,City,6073,CA,California,33.1197,-117.209,4127
Lake Riverside,Lake Riverside,City,6065,CA,California,33.5173,-116.8107,1086
Lake Nacimiento,Lake Nacimiento,City,6079,CA,California,35.7308,-120.8695,3050
Lake Mathews,Lake Mathews,City,6065,CA,California,33.825,-117.3683,7455
Lake Los Angeles,Lake Los Angeles,City,6037,CA,California,34.6097,-117.8339,12497
Lake Isabella,Lake Isabella,City,6029,CA,California,35.6378,-118.482,3553
Lake Hughes,Lake Hughes,City,6037,CA,California,34.6832,-118.4588,611
Lake Forest,Lake Forest,City,6059,CA,California,33.6605,-117.6714,85516
Lake Elsinore,Lake Elsinore,City,6065,CA,California,33.6847,-117.3344,68822
Lake Don Pedro,Lake Don Pedro,City,6043,CA,California,37.659,-120.3329,1419
Lake Davis,Lake Davis,City,6063,CA,California,39.8564,-120.463,76
Lake City,Lake City,City,6049,CA,California,41.646,-120.2255,43
Lake California,Lake California,City,6103,CA,California,40.3608,-122.2102,3668
Lake Arrowhead,Lake Arrowhead,City,6071,CA,California,34.2531,-117.1944,9647
Lake Almanor West,Lake Almanor West,City,6063,CA,California,40.2336,-121.2021,300
Lake Almanor Peninsula,Lake Almanor Peninsula,City,6063,CA,California,40.2813,-121.1345,332
Lake Almanor Country Club,Lake Almanor Country Club,City,6063,CA,California,40.2578,-121.147,529
Lagunitas-Forest Knolls,Lagunitas-Forest Knolls,City,6041,CA,California,38.018,-122.6912,1742
Laguna Woods,Laguna Woods,City,6059,CA,California,33.6099,-117.7299,17546
Laguna Niguel,Laguna Niguel,City,6059,CA,California,33.5275,-117.705,64608
Laguna Hills,Laguna Hills,City,6059,CA,California,33.5918,-117.6991,31409
Laguna Beach,Laguna Beach,City,6059,CA,California,33.5455,-117.7613,23121
Lafayette,Lafayette,City,6013,CA,California,37.8919,-122.1189,25384
Ladera Ranch,Ladera Ranch,City,6059,CA,California,33.5492,-117.6417,25526
Ladera Heights,Ladera Heights,City,6037,CA,California,33.9972,-118.374,6658
Ladera,Ladera,City,6081,CA,California,37.3999,-122.1989,1449
La Vina,La Vina,City,6039,CA,California,36.8798,-120.1149,387
La Verne,La Verne,City,6037,CA,California,34.1207,-117.7703,31423
La Selva Beach,La Selva Beach,City,6087,CA,California,36.9275,-121.8444,2635
La Riviera,La Riviera,City,6067,CA,California,38.5683,-121.3544,11723
La Quinta,La Quinta,City,6065,CA,California,33.6536,-116.2785,37846
La Puente,La Puente,City,6037,CA,California,34.0323,-117.9533,38447
La Presa,La Presa,City,6073,CA,California,32.711,-117.0027,38492
La Porte,La Porte,City,6063,CA,California,39.6725,-120.9852,0
La Palma,La Palma,City,6059,CA,California,33.8504,-118.0407,15650
La Mirada,La Mirada,City,6037,CA,California,33.9025,-118.0093,47957
La Mesa,La Mesa,City,6073,CA,California,32.7703,-117.0204,61040
La Honda,La Honda,City,6081,CA,California,37.3182,-122.2651,1279
La Habra Heights,La Habra Heights,City,6037,CA,California,33.9603,-117.951,5651
La Habra,La Habra,City,6059,CA,California,33.9282,-117.9515,63287
La Grange,La Grange,City,6099,CA,California,37.6636,-120.4635,193
La Cresta,La Cresta,City,6029,CA,California,35.3972,-118.9892,8726
La Crescenta-Montrose,La Crescenta-Montrose,City,6037,CA,California,34.2322,-118.2353,20149
La Ca√±ada Flintridge,La Canada Flintridge,City,6037,CA,California,34.2097,-118.2002,20613
Knightsen,Knightsen,City,6013,CA,California,37.9633,-121.6511,1310
Knights Landing,Knights Landing,City,6113,CA,California,38.798,-121.7175,944
Knights Ferry,Knights Ferry,City,6099,CA,California,37.8199,-120.6704,41
Klamath,Klamath,City,6015,CA,California,41.5442,-124.0245,946
Kirkwood,Kirkwood,City,6003,CA,California,38.693,-120.0641,232
Kingvale,Kingvale,City,6057,CA,California,39.3204,-120.4387,104
Kingsburg,Kingsburg,City,6019,CA,California,36.5244,-119.5602,12413
Kings Beach,Kings Beach,City,6061,CA,California,39.245,-120.0203,3066
King City,King City,City,6053,CA,California,36.2164,-121.133,13419
Keyes,Keyes,City,6099,CA,California,37.5573,-120.9114,5483
Kettleman City,Kettleman City,City,6031,CA,California,36.0089,-119.9629,779
Keswick,Keswick,City,6089,CA,California,40.6135,-122.4606,141
Kernville,Kernville,City,6029,CA,California,35.7533,-118.4321,780
Kerman,Kerman,City,6019,CA,California,36.7248,-120.0625,15817
Kep'el,Kep'el,City,6023,CA,California,41.2842,-123.819,25
Kenwood,Kenwood,City,6097,CA,California,38.4153,-122.5387,703
Kentfield,Kentfield,City,6041,CA,California,37.9481,-122.5497,7517
Kensington,Kensington,City,6013,CA,California,37.9083,-122.2805,5288
Kennedy Meadows,Kennedy Meadows,City,6107,CA,California,36.0076,-118.1099,93
Kennedy,Kennedy,City,6077,CA,California,37.929,-121.2456,2632
Kelseyville,Kelseyville,City,6033,CA,California,38.9704,-122.8328,3873
Kelly Ridge,Kelly Ridge,City,6007,CA,California,39.5289,-121.4662,3002
Keene,Keene,City,6029,CA,California,35.2335,-118.6098,282
Keeler,Keeler,City,6027,CA,California,36.4867,-117.8733,31
Keddie,Keddie,City,6063,CA,California,40.0059,-120.9523,81
Jurupa Valley,Jurupa Valley,City,6065,CA,California,34.001,-117.4706,104684
June Lake,June Lake,City,6051,CA,California,37.7778,-119.0953,263
Junction City,Junction City,City,6105,CA,California,40.7341,-123.0618,1180
Julian,Julian,City,6073,CA,California,33.0735,-116.5889,1332
Jovista,Jovista,City,6107,CA,California,35.794,-119.1896,82
Joshua Tree,Joshua Tree,City,6071,CA,California,34.1236,-116.3128,7398
Jones Valley,Jones Valley,City,6089,CA,California,40.6999,-122.2405,1382
Johnsville,Johnsville,City,6063,CA,California,39.7663,-120.713,0
Johnstonville,Johnstonville,City,6035,CA,California,40.3791,-120.584,1221
Johnson Park,Johnson Park,City,6089,CA,California,40.9212,-121.6295,872
Johannesburg,Johannesburg,City,6029,CA,California,35.3719,-117.6419,90
Jenner,Jenner,City,6097,CA,California,38.451,-123.1203,0
Janesville,Janesville,City,6035,CA,California,40.2993,-120.5024,2874
Jamul,Jamul,City,6073,CA,California,32.7184,-116.8709,5963
Jamestown,Jamestown,City,6109,CA,California,37.9574,-120.411,3543
Jacumba,Jacumba,City,6073,CA,California,32.6278,-116.1826,613
Jackson,Jackson,City,6005,CA,California,38.3485,-120.7728,4958
Ivanhoe,Ivanhoe,City,6107,CA,California,36.3834,-119.22,4347
Isleton,Isleton,City,6067,CA,California,38.1617,-121.6051,520
Isla Vista,Isla Vista,City,6083,CA,California,34.4128,-119.8614,15732
Irwindale,Irwindale,City,6037,CA,California,34.1121,-117.9636,1359
Irvine,Irvine,City,6059,CA,California,33.6772,-117.7738,297868
Iron Horse,Iron Horse,City,6063,CA,California,39.7805,-120.4824,349
Ione,Ione,City,6005,CA,California,38.3613,-120.9422,5462
Inyokern,Inyokern,City,6029,CA,California,35.6546,-117.8213,857
Inverness,Inverness,City,6041,CA,California,38.0821,-122.8471,1660
Interlaken,Interlaken,City,6087,CA,California,36.9505,-121.7363,8079
Inglewood,Inglewood,City,6037,CA,California,33.9566,-118.3444,108206
Industry,Industry,City,6037,CA,California,34.0175,-117.9267,244
Indio Hills,Indio Hills,City,6065,CA,California,33.8411,-116.2484,565
Indio,Indio,City,6065,CA,California,33.7346,-116.2346,361831
Indianola,Indianola,City,6023,CA,California,40.8133,-124.0808,720
Indian Wells,Indian Wells,City,6065,CA,California,33.7036,-116.3396,4827
Indian Falls,Indian Falls,City,6063,CA,California,40.0587,-120.9803,13
Independence,Independence,City,6027,CA,California,36.8275,-118.2132,785
Imperial Beach,Imperial Beach,City,6073,CA,California,32.5693,-117.118,26375
Imperial,Imperial,City,6025,CA,California,32.839,-115.572,19982
Igo,Igo,City,6089,CA,California,40.4992,-122.5458,148
Idyllwild-Pine Cove,Idyllwild-Pine Cove,City,6065,CA,California,33.7443,-116.7258,2838
Idlewild,Idlewild,City,6107,CA,California,35.8096,-118.6704,0
Hypericum,Hypericum,City,6107,CA,California,36.2562,-119.2169,220
Hydesville,Hydesville,City,6023,CA,California,40.5579,-124.0822,1118
Hyampom,Hyampom,City,6105,CA,California,40.6262,-123.4689,135
Huron,Huron,City,6019,CA,California,36.2041,-120.0961,6277
Huntington Park,Huntington Park,City,6037,CA,California,33.98,-118.2167,55439
Huntington Beach,Huntington Beach,City,6059,CA,California,33.696,-118.0018,198735
Humboldt Hill,Humboldt Hill,City,6023,CA,California,40.7219,-124.1987,3386
Hughson,Hughson,City,6099,CA,California,37.602,-120.866,7425
Hornitos,Hornitos,City,6043,CA,California,37.5026,-120.2388,69
Hornbrook,Hornbrook,City,6093,CA,California,41.908,-122.5597,303
Hopland,Hopland,City,6045,CA,California,38.9691,-123.1173,922
Hoopa,Hoopa,City,6023,CA,California,41.0803,-123.6972,2959
Hood,Hood,City,6067,CA,California,38.3693,-121.5155,243
Honcut,Honcut,City,6007,CA,California,39.3326,-121.5388,229
Homewood Canyon,Homewood Canyon,City,6027,CA,California,35.89,-117.3863,238
Homestead Valley,Homestead Valley,City,6071,CA,California,34.273,-116.4146,2758
Homeland,Homeland,City,6065,CA,California,33.7459,-117.1132,6717
Home Gardens,Home Gardens,City,6065,CA,California,33.8783,-117.5116,12910
Home Garden,Home Garden,City,6031,CA,California,36.3028,-119.637,1577
Holtville,Holtville,City,6025,CA,California,32.8129,-115.3779,5672
Hollister,Hollister,City,6069,CA,California,36.8555,-121.3986,41077
Hiouchi,Hiouchi,City,6015,CA,California,41.7936,-124.0662,189
Hilmar-Irwin,Hilmar-Irwin,City,6047,CA,California,37.4045,-120.8504,6360
Hillsborough,Hillsborough,City,6081,CA,California,37.5572,-122.3586,11390
Hillcrest,Hillcrest,City,6029,CA,California,35.379,-118.9578,11443
Highlands,Highlands,City,6081,CA,California,37.5201,-122.3459,2823
Highland,Highland,City,6071,CA,California,34.1113,-117.165,56733
Highgrove,Highgrove,City,6065,CA,California,34.0106,-117.3098,6270
Hidden Valley Lake,Hidden Valley Lake,City,6033,CA,California,38.8005,-122.5505,6155
Hidden Meadows,Hidden Meadows,City,6073,CA,California,33.2237,-117.1198,3439
Hidden Hills,Hidden Hills,City,6037,CA,California,34.1637,-118.6612,2182
Hickman,Hickman,City,6099,CA,California,37.6193,-120.7513,753
Hesperia,Hesperia,City,6071,CA,California,34.3975,-117.3147,99287
Hermosa Beach,Hermosa Beach,City,6037,CA,California,33.8653,-118.3962,19787
Herlong,Herlong,City,6035,CA,California,40.1417,-120.1397,1307
Hercules,Hercules,City,6013,CA,California,38.0064,-122.2564,26050
Herald,Herald,City,6067,CA,California,38.2913,-121.2318,1041
Hemet,Hemet,City,6065,CA,California,33.7341,-116.9969,191170
Heber,Heber,City,6025,CA,California,32.7325,-115.5294,8346
Healdsburg,Healdsburg,City,6097,CA,California,38.6224,-122.8651,11439
Hayward,Hayward,City,6001,CA,California,37.6328,-122.0766,162254
Hayfork,Hayfork,City,6105,CA,California,40.561,-123.1298,3639
Hawthorne,Hawthorne,City,6037,CA,California,33.9147,-118.3476,87863
Hawaiian Gardens,Hawaiian Gardens,City,6037,CA,California,33.8304,-118.0728,14178
Hat Creek,Hat Creek,City,6089,CA,California,40.8101,-121.4809,86
Hasley Canyon,Hasley Canyon,City,6037,CA,California,34.4817,-118.6665,1450
Hartley,Hartley,City,6095,CA,California,38.4203,-121.952,2895
Hartland,Hartland,City,6107,CA,California,36.6539,-118.9588,0
Harmony Grove,Harmony Grove,City,6073,CA,California,33.1007,-117.1381,1651
Hardwick,Hardwick,City,6031,CA,California,36.4026,-119.7208,144
Harbison Canyon,Harbison Canyon,City,6073,CA,California,32.8273,-116.8381,4380
Happy Valley,Happy Valley,City,6089,CA,California,40.4662,-122.4207,5443
Happy Camp,Happy Camp,City,6093,CA,California,41.8104,-123.3892,854
Hanford,Hanford,City,6031,CA,California,36.3274,-119.6549,95459
Hamilton City,Hamilton City,City,6021,CA,California,39.7427,-122.011,2216
Hamilton Branch,Hamilton Branch,City,6063,CA,California,40.2772,-121.0961,390
Half Moon Bay,Half Moon Bay,City,6081,CA,California,37.4685,-122.4382,11792
Hacienda Heights,Hacienda Heights,City,6037,CA,California,33.997,-117.9727,54841
Gustine,Gustine,City,6047,CA,California,37.2545,-120.9949,5990
Guinda,Guinda,City,6113,CA,California,38.8274,-122.1984,95
Guerneville,Guerneville,City,6097,CA,California,38.5137,-122.9894,4879
Guadalupe,Guadalupe,City,6083,CA,California,34.9609,-120.5735,8138
Grover Beach,Grover Beach,City,6079,CA,California,35.1204,-120.6197,12846
Groveland,Groveland,City,6109,CA,California,37.8325,-120.2392,495
Grizzly Flats,Grizzly Flats,City,6017,CA,California,38.6358,-120.5354,1205
Grimes,Grimes,City,6011,CA,California,39.0741,-121.8988,442
Gridley,Gridley,City,6007,CA,California,39.3622,-121.6971,7510
Grenada,Grenada,City,6093,CA,California,41.6406,-122.526,321
Greenville,Greenville,City,6063,CA,California,40.1336,-120.9454,648
Greenview,Greenview,City,6093,CA,California,41.5471,-122.9185,109
Greenhorn,Greenhorn,City,6063,CA,California,39.903,-120.759,213
Greenfield,Greenfield,City,6053,CA,California,36.3242,-121.2428,18833
Greenacres,Greenacres,City,6029,CA,California,35.3831,-119.1184,4701
Green Valley,Green Valley,City,6095,CA,California,38.2607,-122.1622,1672
Greeley Hill,Greeley Hill,City,6043,CA,California,37.7505,-120.1228,945
Grayson,Grayson,City,6099,CA,California,37.5646,-121.1801,1344
Graton,Graton,City,6097,CA,California,38.4375,-122.866,1802
Grass Valley,Grass Valley,City,6057,CA,California,39.2238,-121.0522,13550
Graniteville,Graniteville,City,6057,CA,California,39.4442,-120.7361,12
Granite Hills,Granite Hills,City,6073,CA,California,32.8033,-116.9056,4509
Granite Bay,Granite Bay,City,6061,CA,California,38.7601,-121.1714,21673
Grangeville,Grangeville,City,6031,CA,California,36.344,-119.7075,316
Grand Terrace,Grand Terrace,City,6071,CA,California,34.0312,-117.3132,13079
Graeagle,Graeagle,City,6063,CA,California,39.7572,-120.6486,516
Goshen,Goshen,City,6107,CA,California,36.3493,-119.4206,5154
Goodyears Bar,Goodyears Bar,City,6091,CA,California,39.5459,-120.888,64
Goodmanville,Goodmanville,City,6029,CA,California,35.4348,-118.939,169
Good Hope,Good Hope,City,6065,CA,California,33.7706,-117.2771,7877
Gonzales,Gonzales,City,6053,CA,California,36.5055,-121.4427,8628
Goleta,Goleta,City,6083,CA,California,34.4361,-119.8594,32677
Golden Hills,Golden Hills,City,6029,CA,California,35.1409,-118.4968,10051
Gold River,Gold River,City,6067,CA,California,38.6268,-121.2488,7932
Gold Mountain,Gold Mountain,City,6063,CA,California,39.7613,-120.5191,89
Glennville,Glennville,City,6029,CA,California,35.7242,-118.7152,38
Glendora,Glendora,City,6037,CA,California,34.1449,-117.8467,52458
Glendale,Glendale,City,6037,CA,California,34.1819,-118.2468,196512
Glen Ellen,Glen Ellen,City,6097,CA,California,38.3564,-122.5412,1076
Gilroy,Gilroy,City,6085,CA,California,37.0046,-121.5854,114461
Geyserville,Geyserville,City,6097,CA,California,38.7173,-122.9034,865
Gerber,Gerber,City,6103,CA,California,40.0614,-122.1482,1049
Georgetown,Georgetown,City,6017,CA,California,38.9112,-120.8356,3018
Gazelle,Gazelle,City,6093,CA,California,41.5149,-122.5217,132
Gasquet,Gasquet,City,6015,CA,California,41.8429,-123.9731,511
Garnet,Garnet,City,6065,CA,California,33.9179,-116.4796,5853
Garey,Garey,City,6083,CA,California,34.8869,-120.3141,45
Gardena,Gardena,City,6037,CA,California,33.8943,-118.3072,60917
Garden Grove,Garden Grove,City,6059,CA,California,33.7787,-117.9601,172708
Garden Farms,Garden Farms,City,6079,CA,California,35.4158,-120.6141,373
Garden Acres,Garden Acres,City,6077,CA,California,37.9637,-121.2296,10411
Garberville,Garberville,City,6023,CA,California,40.1003,-123.7948,1416
Galt,Galt,City,6067,CA,California,38.2698,-121.3004,25385
Furnace Creek,Furnace Creek,City,6027,CA,California,36.4277,-116.8747,103
Fulton,Fulton,City,6097,CA,California,38.4937,-122.7734,457
Fullerton,Fullerton,City,6059,CA,California,33.8841,-117.9279,142964
Fuller Acres,Fuller Acres,City,6029,CA,California,35.3023,-118.9143,651
Fruitridge Pocket,Fruitridge Pocket,City,6067,CA,California,38.5326,-121.4558,5915
Fruitdale,Fruitdale,City,6085,CA,California,37.3116,-121.9357,1357
Friant,Friant,City,6019,CA,California,36.9848,-119.713,426
Fresno,Fresno,City,6019,CA,California,36.783,-119.7939,719558
French Valley,French Valley,City,6065,CA,California,33.5999,-117.1069,40188
French Gulch,French Gulch,City,6089,CA,California,40.7166,-122.6312,387
French Camp,French Camp,City,6077,CA,California,37.8803,-121.2803,3778
Fremont,Fremont,City,6001,CA,California,37.5265,-121.9843,231502
Freeport,Freeport,City,6067,CA,California,38.4636,-121.5022,0
Freedom,Freedom,City,6087,CA,California,36.9403,-121.7953,3399
Frazier Park,Frazier Park,City,6029,CA,California,34.8118,-118.9549,3063
Franklin,Franklin,City,6047,CA,California,37.3275,-120.5321,7386
Fowler,Fowler,City,6019,CA,California,36.6243,-119.6737,6675
Fountain Valley,Fountain Valley,City,6059,CA,California,33.7105,-117.9514,57139
Foster City,Foster City,City,6081,CA,California,37.5553,-122.2659,33511
Fortuna,Fortuna,City,6023,CA,California,40.5862,-124.1419,12480
Fort Washington,Fort Washington,City,6019,CA,California,36.8793,-119.7613,167
Fort Jones,Fort Jones,City,6093,CA,California,41.6086,-122.8409,647
Fort Irwin,Fort Irwin,City,6071,CA,California,35.2477,-116.6834,9100
Fort Hunter Liggett,Fort Hunter Liggett,City,6053,CA,California,36.0019,-121.2381,204
Fort Dick,Fort Dick,City,6015,CA,California,41.8663,-124.1526,1271
Fort Bragg,Fort Bragg,City,6045,CA,California,39.4399,-123.8013,7049
Fort Bidwell,Fort Bidwell,City,6049,CA,California,41.863,-120.1589,207
Forestville,Forestville,City,6097,CA,California,38.4825,-122.8899,3768
Foresthill,Foresthill,City,6061,CA,California,39.0053,-120.8314,1265
Forest Ranch,Forest Ranch,City,6007,CA,California,39.8952,-121.6704,1820
Forest Meadows,Forest Meadows,City,6009,CA,California,38.1717,-120.399,1371
Ford City,Ford City,City,6029,CA,California,35.1647,-119.4584,4327
Forbestown,Forbestown,City,6007,CA,California,39.53,-121.2689,272
Foothill Farms,Foothill Farms,City,6067,CA,California,38.6867,-121.3475,37432
Fontana,Fontana,City,6071,CA,California,34.0968,-117.4599,208087
Folsom,Folsom,City,6067,CA,California,38.6668,-121.1422,79201
Flournoy,Flournoy,City,6103,CA,California,39.9284,-122.4458,148
Floriston,Floriston,City,6057,CA,California,39.393,-120.0149,22
Florin,Florin,City,6067,CA,California,38.4832,-121.4043,51568
Florence-Graham,Florence-Graham,City,6037,CA,California,33.9682,-118.2447,64109
Fish Camp,Fish Camp,City,6043,CA,California,37.4778,-119.6393,0
Firebaugh,Firebaugh,City,6019,CA,California,36.8533,-120.4535,8040
Fillmore,Fillmore,City,6111,CA,California,34.3989,-118.9174,16373
Fields Landing,Fields Landing,City,6023,CA,California,40.7249,-124.2177,632
Fieldbrook,Fieldbrook,City,6023,CA,California,40.9723,-124.025,779
Fiddletown,Fiddletown,City,6005,CA,California,38.5069,-120.7602,252
Fetters Hot Springs-Agua Caliente,Fetters Hot Springs-Agua Caliente,City,6097,CA,California,38.3274,-122.4871,3664
Ferndale,Ferndale,City,6023,CA,California,40.5781,-124.2612,1481
Felton,Felton,City,6087,CA,California,37.0392,-122.0808,3467
Fellows,Fellows,City,6029,CA,California,35.178,-119.5472,86
Farmington,Farmington,City,6077,CA,California,37.9299,-121.0044,144
Farmersville,Farmersville,City,6107,CA,California,36.305,-119.2083,10441
Fallbrook,Fallbrook,City,6073,CA,California,33.3693,-117.2259,32999
Fall River Mills,Fall River Mills,City,6089,CA,California,41.0069,-121.4401,657
Fairview,Fairview,City,6001,CA,California,37.6758,-122.0473,11050
Fairmead,Fairmead,City,6039,CA,California,37.0775,-120.1937,1382
Fairhaven,Fairhaven,City,6023,CA,California,40.7884,-124.2014,258
Fairfield,Fairfield,City,6095,CA,California,38.2583,-122.0335,145163
Fairfax,Fairfax,City,6041,CA,California,37.9886,-122.5952,7605
Fairfax,Fairfax,City,6029,CA,California,35.3469,-118.9339,1986
Fairbanks Ranch,Fairbanks Ranch,City,6073,CA,California,32.9919,-117.1859,2960
Fair Oaks,Fair Oaks,City,6067,CA,California,38.6504,-121.2496,31750
Exeter,Exeter,City,6107,CA,California,36.2941,-119.1459,10349
Eureka,Eureka,City,6023,CA,California,40.7943,-124.1564,26763
Eucalyptus Hills,Eucalyptus Hills,City,6073,CA,California,32.885,-116.9453,6097
Etna,Etna,City,6093,CA,California,41.4582,-122.8945,753
Esparto,Esparto,City,6113,CA,California,38.6934,-122.0241,3733
Escondido,Escondido,City,6073,CA,California,33.1348,-117.0723,151443
Escalon,Escalon,City,6077,CA,California,37.7912,-120.9982,7458
Encinitas,Encinitas,City,6073,CA,California,33.0492,-117.261,62140
Empire,Empire,City,6099,CA,California,37.6432,-120.9073,3496
Emeryville,Emeryville,City,6001,CA,California,37.8382,-122.2932,12747
Emerald Lake Hills,Emerald Lake Hills,City,6081,CA,California,37.4662,-122.2674,4545
Elverta,Elverta,City,6067,CA,California,38.7185,-121.4455,5104
Elmira,Elmira,City,6095,CA,California,38.3523,-121.9077,202
Elkhorn,Elkhorn,City,6053,CA,California,36.8103,-121.7212,1202
Elk Grove,Elk Grove,City,6067,CA,California,38.4161,-121.3842,175510
Elk Creek,Elk Creek,City,6021,CA,California,39.6004,-122.5375,153
Elizabeth Lake,Elizabeth Lake,City,6037,CA,California,34.6589,-118.3785,1817
Elfin Forest,Elfin Forest,City,6073,CA,California,33.0812,-117.1775,519
Eldridge,Eldridge,City,6097,CA,California,38.3338,-122.5065,944
El Verano,El Verano,City,6097,CA,California,38.2975,-122.4915,3346
El Sobrante,El Sobrante,City,6065,CA,California,33.8724,-117.4624,12163
El Segundo,El Segundo,City,6037,CA,California,33.917,-118.4018,17243
El Rio,El Rio,City,6111,CA,California,34.2453,-119.1568,6447
El Rancho,El Rancho,City,6107,CA,California,36.2207,-119.0684,48
El Portal,El Portal,City,6043,CA,California,37.6737,-119.787,363
El Paso de Robles,El Paso de Robles,City,6079,CA,California,35.6394,-120.656,67696
El Nido,El Nido,City,6047,CA,California,37.1324,-120.4985,308
El Monte Mobile Village,El Monte Mobile Village,City,6107,CA,California,36.5471,-119.4251,0
El Monte,El Monte,City,6037,CA,California,34.0739,-118.0291,110144
El Macero,El Macero,City,6113,CA,California,38.544,-121.6852,1073
El Granada,El Granada,City,6081,CA,California,37.5134,-122.4657,5842
El Dorado Hills,El Dorado Hills,City,6017,CA,California,38.675,-121.049,48612
El Cerrito,El Cerrito,City,6013,CA,California,37.9196,-122.3025,25898
El Centro Naval Air Facility,El Centro Naval Air Facility,City,6025,CA,California,32.8252,-115.6681,519
El Centro,El Centro,City,6025,CA,California,32.7865,-115.5595,110434
El Cajon,El Cajon,City,6073,CA,California,32.8017,-116.9604,106043
El Adobe,El Adobe,City,6029,CA,California,35.2451,-118.9589,113
Edwards AFB,Edwards AFB,City,6029,CA,California,34.9045,-117.9294,2721
Edna,Edna,City,6079,CA,California,35.2108,-120.606,393
Edmundson Acres,Edmundson Acres,City,6029,CA,California,35.2273,-118.8233,250
Edison,Edison,City,6029,CA,California,35.3473,-118.8698,326
Edgewood,Edgewood,City,6093,CA,California,41.462,-122.426,47
Eastvale,Eastvale,City,6065,CA,California,33.9617,-117.5803,68539
Easton,Easton,City,6019,CA,California,36.6524,-119.7908,2155
Eastern Goleta Valley,Eastern Goleta Valley,City,6083,CA,California,34.4448,-119.7879,29983
East Whittier,East Whittier,City,6037,CA,California,33.9244,-117.9887,9995
East Tulare Villa,East Tulare Villa,City,6107,CA,California,36.2038,-119.2803,692
East Sonora,East Sonora,City,6109,CA,California,37.9774,-120.3409,2654
East Shore,East Shore,City,6063,CA,California,40.2453,-121.0768,161
East San Gabriel,East San Gabriel,City,6037,CA,California,34.1157,-118.0791,22941
East Richmond Heights,East Richmond Heights,City,6013,CA,California,37.945,-122.314,3355
East Rancho Dominguez,East Rancho Dominguez,City,6037,CA,California,33.8949,-118.1956,14462
East Quincy,East Quincy,City,6063,CA,California,39.9165,-120.9189,2276
East Porterville,East Porterville,City,6107,CA,California,36.0581,-118.9749,5651
East Pasadena,East Pasadena,City,6037,CA,California,34.1378,-118.0776,5829
East Palo Alto,East Palo Alto,City,6081,CA,California,37.4671,-122.1352,29888
East Orosi,East Orosi,City,6107,CA,California,36.5481,-119.2599,647
East Oakdale,East Oakdale,City,6099,CA,California,37.7855,-120.8009,2358
East Niles,East Niles,City,6029,CA,California,35.3683,-118.9225,29110
East Nicolaus,East Nicolaus,City,6101,CA,California,38.91,-121.5443,168
East Los Angeles,East Los Angeles,City,6037,CA,California,34.0326,-118.1691,118964
East Hemet,East Hemet,City,6065,CA,California,33.7301,-116.941,19998
East Foothills,East Foothills,City,6085,CA,California,37.3826,-121.8138,7391
East Bakersfield,East Bakersfield,City,6029,CA,California,35.3832,-118.9743,11025
Earlimart,Earlimart,City,6107,CA,California,35.8914,-119.2721,7896
Eagleville,Eagleville,City,6049,CA,California,41.319,-120.1146,23
Dutch Flat,Dutch Flat,City,6061,CA,California,39.208,-120.8345,110
Dustin Acres,Dustin Acres,City,6029,CA,California,35.2159,-119.375,393
Durham,Durham,City,6007,CA,California,39.6232,-121.7875,5989
Dunsmuir,Dunsmuir,City,6093,CA,California,41.2317,-122.2715,1826
Dunnigan,Dunnigan,City,6113,CA,California,38.8926,-121.9741,1081
Ducor,Ducor,City,6107,CA,California,35.8927,-119.047,613
Dublin,Dublin,City,6001,CA,California,37.7161,-121.8963,69818
Duarte,Duarte,City,6037,CA,California,34.161,-117.9504,21723
Drytown,Drytown,City,6005,CA,California,38.4397,-120.8587,13
Doyle,Doyle,City,6035,CA,California,40.0275,-120.1173,959
Downieville,Downieville,City,6091,CA,California,39.5701,-120.8213,92
Downey,Downey,City,6037,CA,California,33.9379,-118.1311,114293
Douglas City,Douglas City,City,6105,CA,California,40.6529,-122.9283,951
Dos Palos Y,Dos Palos Y,City,6047,CA,California,37.0469,-120.6395,213
Dos Palos,Dos Palos,City,6047,CA,California,36.9854,-120.6338,5651
Dorris,Dorris,City,6093,CA,California,41.9644,-121.9205,875
Dorrington,Dorrington,City,6009,CA,California,38.3031,-120.2648,463
Dollar Point,Dollar Point,City,6061,CA,California,39.1899,-120.1083,949
Dogtown,Dogtown,City,6077,CA,California,38.2096,-121.1551,2894
Dobbins,Dobbins,City,6115,CA,California,39.3657,-121.2128,301
Dixon Lane-Meadow Creek,Dixon Lane-Meadow Creek,City,6027,CA,California,37.3864,-118.4153,2835
Dixon,Dixon,City,6095,CA,California,38.4469,-121.825,19038
Discovery Bay,Discovery Bay,City,6013,CA,California,37.9063,-121.599,15704
Dinuba,Dinuba,City,6107,CA,California,36.5453,-119.3987,24383
Dillon Beach,Dillon Beach,City,6041,CA,California,38.2436,-122.9562,394
Diamond Springs,Diamond Springs,City,6017,CA,California,38.692,-120.8391,11545
Diamond Bar,Diamond Bar,City,6037,CA,California,33.9992,-117.8161,55339
Diablo Grande,Diablo Grande,City,6099,CA,California,37.4009,-121.2629,1111
Diablo,Diablo,City,6013,CA,California,37.8408,-121.9565,689
Di Giorgio,Di Giorgio,City,6029,CA,California,35.2491,-118.8442,390
Desert View Highlands,Desert View Highlands,City,6037,CA,California,34.5903,-118.1535,3205
Desert Shores,Desert Shores,City,6025,CA,California,33.4041,-116.0394,395
Desert Palms,Desert Palms,City,6065,CA,California,33.7789,-116.293,6225
Desert Hot Springs,Desert Hot Springs,City,6065,CA,California,33.955,-116.5429,31988
Desert Edge,Desert Edge,City,6065,CA,California,33.9223,-116.4401,3484
Desert Center,Desert Center,City,6065,CA,California,33.7378,-115.3666,288
Descanso,Descanso,City,6073,CA,California,32.8696,-116.6279,1595
Derby Acres,Derby Acres,City,6029,CA,California,35.244,-119.6038,362
Denair,Denair,City,6099,CA,California,37.5254,-120.7974,4905
Delleker,Delleker,City,6063,CA,California,39.8102,-120.4968,675
Delhi,Delhi,City,6047,CA,California,37.4306,-120.7759,10921
Delft Colony,Delft Colony,City,6107,CA,California,36.5137,-119.4465,1427
Delano,Delano,City,6029,CA,California,35.7662,-119.2635,52206
Del Rio,Del Rio,City,6099,CA,California,37.7432,-121.0084,1445
Del Rey Oaks,Del Rey Oaks,City,6053,CA,California,36.5913,-121.829,1616
Del Rey,Del Rey,City,6019,CA,California,36.6565,-119.5981,1413
Del Monte Forest,Del Monte Forest,City,6053,CA,California,36.5854,-121.9434,3604
Del Mar,Del Mar,City,6073,CA,California,32.9635,-117.2624,4008
Del Dios,Del Dios,City,6073,CA,California,33.0757,-117.119,277
Del Aire,Del Aire,City,6037,CA,California,33.9167,-118.3693,10617
Deer Park,Deer Park,City,6055,CA,California,38.536,-122.4679,697
Day Valley,Day Valley,City,6087,CA,California,37.0255,-121.8559,3397
Davis,Davis,City,6113,CA,California,38.5553,-121.737,75468
Davenport,Davenport,City,6087,CA,California,37.0176,-122.1881,688
Darwin,Darwin,City,6027,CA,California,36.2688,-117.589,74
Daphnedale Park,Daphnedale Park,City,6049,CA,California,41.507,-120.5472,129
Danville,Danville,City,6013,CA,California,37.8121,-121.9698,43673
Dana Point,Dana Point,City,6059,CA,California,33.4733,-117.6967,33327
Daly City,Daly City,City,6081,CA,California,37.6862,-122.4685,104914
Dales,Dales,City,6103,CA,California,40.3155,-122.0604,29
Cypress,Cypress,City,6059,CA,California,33.8171,-118.0386,50279
Cuyama,Cuyama,City,6083,CA,California,34.9312,-119.6148,14
Cutten,Cutten,City,6023,CA,California,40.7657,-124.1445,3180
Cutler,Cutler,City,6107,CA,California,36.5247,-119.2889,5172
Cupertino,Cupertino,City,6085,CA,California,37.3168,-122.0466,60681
Culver City,Culver City,City,6037,CA,California,34.0058,-118.3968,40640
Cudahy,Cudahy,City,6037,CA,California,33.9631,-118.183,23003
Crows Landing,Crows Landing,City,6099,CA,California,37.3944,-121.0752,278
Crowley Lake,Crowley Lake,City,6051,CA,California,37.5689,-118.7463,1094
Cromberg,Cromberg,City,6063,CA,California,39.8684,-120.6904,433
Crockett,Crockett,City,6013,CA,California,38.0519,-122.2201,3405
Creston,Creston,City,6079,CA,California,35.5173,-120.521,0
Crestline,Crestline,City,6071,CA,California,34.2486,-117.2887,9350
Crest,Crest,City,6073,CA,California,32.8,-116.8671,2776
Cressey,Cressey,City,6047,CA,California,37.421,-120.6557,311
Crescent Mills,Crescent Mills,City,6063,CA,California,40.1008,-120.9217,89
Crescent City,Crescent City,City,6015,CA,California,41.7728,-124.1902,6686
Crane Creek,Crane Creek,City,6043,CA,California,37.6988,-119.7482,34
Cowan,Cowan,City,6099,CA,California,37.5601,-120.9888,595
Covina,Covina,City,6037,CA,California,34.0903,-117.8818,51061
Covelo,Covelo,City,6045,CA,California,39.8025,-123.2499,1317
Courtland,Courtland,City,6067,CA,California,38.3329,-121.557,669
Country Club,Country Club,City,6077,CA,California,37.9687,-121.3408,9667
Coulterville,Coulterville,City,6043,CA,California,37.7123,-120.1967,44
Cottonwood,Cottonwood,City,6089,CA,California,40.3903,-122.3156,5912
Cottonwood,Cottonwood,City,6029,CA,California,35.3464,-118.9851,3381
Coto de Caza,Coto de Caza,City,6059,CA,California,33.5959,-117.586,15873
Cotati,Cotati,City,6097,CA,California,38.3278,-122.7092,7603
Costa Mesa,Costa Mesa,City,6059,CA,California,33.6667,-117.9135,112148
Corte Madera,Corte Madera,City,6041,CA,California,37.9238,-122.5128,10145
Corralitos,Corralitos,City,6087,CA,California,36.9941,-121.7892,2367
Coronita,Coronita,City,6065,CA,California,33.876,-117.6109,3950
Coronado,Coronado,City,6073,CA,California,32.6649,-117.1604,20627
Corona,Corona,City,6065,CA,California,33.8616,-117.5649,157844
Corning,Corning,City,6103,CA,California,39.9283,-122.1819,8156
Corcoran,Corcoran,City,6031,CA,California,36.0841,-119.5613,22616
Copperopolis,Copperopolis,City,6009,CA,California,37.9488,-120.6352,3563
Contra Costa Centre,Contra Costa Centre,City,6013,CA,California,37.926,-122.054,6743
Concow,Concow,City,6007,CA,California,39.7733,-121.5196,306
Concord,Concord,City,6013,CA,California,37.9722,-122.0016,640270
Compton,Compton,City,6037,CA,California,33.893,-118.2274,96083
Comptche,Comptche,City,6045,CA,California,39.2652,-123.5898,263
Commerce,Commerce,City,6037,CA,California,33.9963,-118.1519,12459
Colusa,Colusa,City,6011,CA,California,39.2059,-122.0125,6359
Columbia,Columbia,City,6109,CA,California,38.0333,-120.4096,2079
Colton,Colton,City,6071,CA,California,34.0538,-117.3255,53894
Coloma,Coloma,City,6017,CA,California,38.8026,-120.8946,392
Colma,Colma,City,6081,CA,California,37.6767,-122.4528,1353
Collierville,Collierville,City,6077,CA,California,38.2141,-121.2675,1856
College City,College City,City,6011,CA,California,39.0061,-122.0051,153
Colfax,Colfax,City,6061,CA,California,39.0938,-120.9532,2289
Coleville,Coleville,City,6051,CA,California,38.5806,-119.5029,329
Cold Springs,Cold Springs,City,6017,CA,California,38.7465,-120.8738,665
Cohasset,Cohasset,City,6007,CA,California,39.9022,-121.7453,480
Coffee Creek,Coffee Creek,City,6105,CA,California,41.0802,-122.7136,299
Cobb,Cobb,City,6033,CA,California,38.8356,-122.723,646
Coarsegold,Coarsegold,City,6039,CA,California,37.2401,-119.7021,4799
Coalinga,Coalinga,City,6019,CA,California,36.142,-120.3242,17560
Coachella,Coachella,City,6065,CA,California,33.6905,-116.143,42123
Clyde,Clyde,City,6013,CA,California,38.0253,-122.028,633
Clovis,Clovis,City,6019,CA,California,36.8278,-119.683,118488
Cloverdale,Cloverdale,City,6097,CA,California,38.7962,-123.0152,9023
Clipper Mills,Clipper Mills,City,6007,CA,California,39.5325,-121.1665,402
Clio,Clio,City,6063,CA,California,39.7487,-120.5726,170
Cleone,Cleone,City,6045,CA,California,39.4928,-123.7812,892
Clearlake Riviera,Clearlake Riviera,City,6033,CA,California,38.9513,-122.7208,4357
Clearlake Oaks,Clearlake Oaks,City,6033,CA,California,39.0218,-122.6593,2171
Clearlake,Clearlake,City,6033,CA,California,38.9589,-122.633,16468
Clear Creek,Clear Creek,City,6035,CA,California,40.3023,-121.0531,283
Clayton,Clayton,City,6013,CA,California,37.9404,-121.9301,11136
Clay,Clay,City,6067,CA,California,38.314,-121.1596,1093
Clarksburg,Clarksburg,City,6113,CA,California,38.4193,-121.5416,379
Claremont,Claremont,City,6037,CA,California,34.1259,-117.7153,36312
Citrus Heights,Citrus Heights,City,6067,CA,California,38.6948,-121.288,87521
Citrus,Citrus,City,6037,CA,California,34.116,-117.8891,10626
Chula Vista,Chula Vista,City,6073,CA,California,32.6281,-117.0144,274818
Chualar,Chualar,City,6053,CA,California,36.5711,-121.5103,1139
Chowchilla,Chowchilla,City,6039,CA,California,37.1095,-120.2349,18826
Chino Hills,Chino Hills,City,6071,CA,California,33.9508,-117.7254,78229
Chino,Chino,City,6071,CA,California,33.9836,-117.6654,90279
Chinese Camp,Chinese Camp,City,6109,CA,California,37.8702,-120.4443,108
China Lake Acres,China Lake Acres,City,6029,CA,California,35.6387,-117.7668,2441
Chilcoot-Vinton,Chilcoot-Vinton,City,6063,CA,California,39.8067,-120.1388,318
Chico,Chico,City,6007,CA,California,39.7578,-121.8161,112132
Chester,Chester,City,6063,CA,California,40.3017,-121.2339,2242
Cherryland,Cherryland,City,6001,CA,California,37.6792,-122.1038,15552
Cherry Valley,Cherry Valley,City,6065,CA,California,33.9797,-116.9694,7749
Cherokee Strip,Cherokee Strip,City,6029,CA,California,35.4698,-119.2617,236
Cherokee,Cherokee,City,6007,CA,California,39.6514,-121.5345,91
Charter Oak,Charter Oak,City,6037,CA,California,34.1025,-117.8564,9825
Charleston View,Charleston View,City,6027,CA,California,35.9646,-115.8972,0
Channel Islands Beach,Channel Islands Beach,City,6111,CA,California,34.1625,-119.2241,2391
Challenge-Brownsville,Challenge-Brownsville,City,6115,CA,California,39.4646,-121.2633,984
Chalfant,Chalfant,City,6051,CA,California,37.5105,-118.375,1155
Cerritos,Cerritos,City,6037,CA,California,33.8678,-118.0686,49630
Ceres,Ceres,City,6099,CA,California,37.5952,-120.962,49132
Centerville,Centerville,City,6089,CA,California,40.543,-122.4638,2136
Centerville,Centerville,City,6019,CA,California,36.7361,-119.4961,166
Cedarville,Cedarville,City,6049,CA,California,41.5281,-120.1748,711
Cedar Slope,Cedar Slope,City,6107,CA,California,36.1455,-118.5788,0
Cedar Ridge,Cedar Ridge,City,6109,CA,California,38.066,-120.2737,1296
Cedar Flat,Cedar Flat,City,6061,CA,California,39.2101,-120.0965,901
Cazadero,Cazadero,City,6097,CA,California,38.5265,-123.0978,351
Cayucos,Cayucos,City,6079,CA,California,35.4375,-120.8846,2133
Catheys Valley,Catheys Valley,City,6043,CA,California,37.4308,-120.0995,783
Cathedral City,Cathedral City,City,6065,CA,California,33.8362,-116.4642,51836
Castroville,Castroville,City,6053,CA,California,36.7649,-121.7534,6665
Castro Valley,Castro Valley,City,6001,CA,California,37.7088,-122.0626,66324
Castle Hill,Castle Hill,City,6013,CA,California,37.8747,-122.0585,920
Castella,Castella,City,6089,CA,California,41.1549,-122.3032,210
Castaic,Castaic,City,6037,CA,California,34.4818,-118.6316,18017
Cassel,Cassel,City,6089,CA,California,40.9213,-121.5514,287
Caspar,Caspar,City,6045,CA,California,39.3631,-123.8043,269
Casmalia,Casmalia,City,6083,CA,California,34.8378,-120.5309,55
Casa de Oro-Mount Helix,Casa de Oro-Mount Helix,City,6073,CA,California,32.764,-116.9688,19804
Casa Loma,Casa Loma,City,6029,CA,California,35.3433,-118.9987,1661
Casa Conejo,Casa Conejo,City,6111,CA,California,34.1848,-118.9445,2961
Caruthers,Caruthers,City,6019,CA,California,36.5399,-119.845,2171
Cartago,Cartago,City,6027,CA,California,36.3123,-118.0261,64
Carson,Carson,City,6037,CA,California,33.8374,-118.2559,95104
Carrick,Carrick,City,6093,CA,California,41.4467,-122.3635,67
Carpinteria,Carpinteria,City,6083,CA,California,34.3962,-119.5118,13289
Carnelian Bay,Carnelian Bay,City,6061,CA,California,39.2336,-120.0764,627
Carmichael,Carmichael,City,6067,CA,California,38.6318,-121.3263,77358
Carmet,Carmet,City,6097,CA,California,38.3743,-123.0719,16
Carmel-by-the-Sea,Carmel-by-the-Sea,City,6053,CA,California,36.5528,-121.9222,3296
Carmel Valley Village,Carmel Valley Village,City,6053,CA,California,36.4824,-121.7198,4400
Carlsbad,Carlsbad,City,6073,CA,California,33.1246,-117.2834,114858
Caribou,Caribou,City,6063,CA,California,40.0767,-121.1609,0
Capitola,Capitola,City,6087,CA,California,36.9773,-121.9537,10041
Canyondam,Canyondam,City,6063,CA,California,40.1698,-121.0771,0
Canyon Lake,Canyon Lake,City,6065,CA,California,33.6885,-117.2621,11071
Cantua Creek,Cantua Creek,City,6019,CA,California,36.5001,-120.3163,471
Canby,Canby,City,6049,CA,California,41.4477,-120.8843,277
Camptonville,Camptonville,City,6115,CA,California,39.4521,-121.0487,227
Campo,Campo,City,6073,CA,California,32.6394,-116.4744,3597
Campbell,Campbell,City,6085,CA,California,37.2802,-121.9539,43954
Camp Pendleton South,Camp Pendleton South,City,6073,CA,California,33.2329,-117.393,15131
Camp Nelson,Camp Nelson,City,6107,CA,California,36.142,-118.6108,0
Camino Tassajara,Camino Tassajara,City,6013,CA,California,37.7909,-121.8851,6279
Camino,Camino,City,6017,CA,California,38.7422,-120.6808,2042
Cameron Park,Cameron Park,City,6017,CA,California,38.6738,-120.9872,17790
Cambrian Park,Cambrian Park,City,6085,CA,California,37.2563,-121.9287,3674
Cambria,Cambria,City,6079,CA,California,35.552,-121.0838,5487
Camarillo,Camarillo,City,6111,CA,California,34.223,-119.0321,77795
Camanche Village,Camanche Village,City,6005,CA,California,38.2662,-120.9866,1798
Camanche North Shore,Camanche North Shore,City,6005,CA,California,38.2442,-120.9538,1222
Calwa,Calwa,City,6019,CA,California,36.7137,-119.7607,2517
Calpine,Calpine,City,6091,CA,California,39.6633,-120.4436,246
Calpella,Calpella,City,6045,CA,California,39.2323,-123.197,617
Callender,Callender,City,6079,CA,California,35.048,-120.576,2245
Calistoga,Calistoga,City,6055,CA,California,38.5818,-122.5824,5267
Calipatria,Calipatria,City,6025,CA,California,33.1493,-115.5055,7247
Calimesa,Calimesa,City,6065,CA,California,33.9874,-117.0542,10053
California Polytechnic State University,California Polytechnic State University,City,6079,CA,California,35.3053,-120.6655,7622
California Pines,California Pines,City,6049,CA,California,41.4117,-120.6605,286
California Hot Springs,California Hot Springs,City,6107,CA,California,35.8876,-118.6551,33
California City,California City,City,6029,CA,California,35.1578,-117.8721,14914
Calexico,Calexico,City,6025,CA,California,32.6849,-115.4944,38798
Calabasas,Calabasas,City,6037,CA,California,34.1375,-118.6689,23410
Cabazon,Cabazon,City,6065,CA,California,33.9127,-116.7828,2264
C-Road,C-Road,City,6063,CA,California,39.7627,-120.577,101
Bystrom,Bystrom,City,6099,CA,California,37.6198,-120.9813,4068
Byron,Byron,City,6013,CA,California,37.8757,-121.6422,2113
Buttonwillow,Buttonwillow,City,6029,CA,California,35.4092,-119.4406,1106
Butte Valley,Butte Valley,City,6007,CA,California,39.6571,-121.6363,869
Butte Meadows,Butte Meadows,City,6007,CA,California,40.0871,-121.537,0
Butte Creek Canyon,Butte Creek Canyon,City,6007,CA,California,39.7489,-121.6968,598
Burnt Ranch,Burnt Ranch,City,6105,CA,California,40.8111,-123.5082,236
Burney,Burney,City,6089,CA,California,40.8846,-121.6691,3377
Burlingame,Burlingame,City,6081,CA,California,37.5859,-122.3667,31142
Burbank,Burbank,City,6037,CA,California,34.1879,-118.3235,107364
Buena Vista,Buena Vista,City,6005,CA,California,38.2975,-120.9174,838
Buena Park,Buena Park,City,6059,CA,California,33.8572,-118.0046,83974
Buellton,Buellton,City,6083,CA,California,34.6152,-120.1943,5162
Bucks Lake,Bucks Lake,City,6063,CA,California,39.8797,-121.1941,21
Buckhorn,Buckhorn,City,6005,CA,California,38.4548,-120.5323,2522
Buck Meadows,Buck Meadows,City,6043,CA,California,37.8104,-120.0687,0
Brooktrails,Brooktrails,City,6045,CA,California,39.4429,-123.3963,4462
Brooks,Brooks,City,6113,CA,California,38.7369,-122.1468,0
Brookdale,Brookdale,City,6087,CA,California,37.1057,-122.1106,1228
Broadmoor,Broadmoor,City,6081,CA,California,37.6916,-122.4814,4487
Brisbane,Brisbane,City,6081,CA,California,37.6902,-122.4021,4803
Bridgeport,Bridgeport,City,6051,CA,California,38.2561,-119.2123,424
Bret Harte,Bret Harte,City,6099,CA,California,37.6021,-121.0045,4981
Brentwood,Brentwood,City,6013,CA,California,37.9356,-121.719,63618
Brea,Brea,City,6059,CA,California,33.9254,-117.8655,46912
Brawley,Brawley,City,6025,CA,California,32.9783,-115.5287,26431
Bradley,Bradley,City,6053,CA,California,35.8627,-120.8041,74
Bradbury,Bradbury,City,6037,CA,California,34.1536,-117.9684,760
Boyes Hot Springs,Boyes Hot Springs,City,6097,CA,California,38.3126,-122.4888,7791
Bowles,Bowles,City,6019,CA,California,36.6089,-119.7526,262
Boulevard,Boulevard,City,6073,CA,California,32.664,-116.2896,410
Boulder Creek,Boulder Creek,City,6087,CA,California,37.1341,-122.1272,5308
Bostonia,Bostonia,City,6073,CA,California,32.8189,-116.948,18074
Borrego Springs,Borrego Springs,City,6073,CA,California,33.241,-116.3571,2566
Boronda,Boronda,City,6053,CA,California,36.6947,-121.6745,1913
Boron,Boron,City,6029,CA,California,35.0161,-117.6661,2418
Bootjack,Bootjack,City,6043,CA,California,37.4673,-119.8852,592
Boonville,Boonville,City,6045,CA,California,39.0115,-123.374,1044
